機構名稱,Longitude,Latitude,Address,Area,St
佳譽堂中醫診所,121.5169985,25.03048056,臺北市中正區寧波西街71號,中正區,寧波西街
仲景中醫診所,121.5273294,25.04362777,臺北市中正區忠孝東路2段16號2樓,中正區,忠孝東路
華御中醫診所,121.5310508,25.04047975,臺北市中正區濟南路2段51號,中正區,濟南路
日明耀中醫診所,121.5130979,25.04360909,臺北市中正區重慶南路一段66之1號2樓之1,中正區,重慶南路
華陽中醫診所,121.5324342,25.04321262,臺北市中正區新生南路一段16之4號,中正區,新生南路
益壽中醫診所,121.5178475,25.03097872,臺北市中正區寧波西街47號3樓,中正區,寧波西街
溫?中醫診所,121.5316285,25.04107676,臺北市中正區忠孝東路二段134巷16號2樓,中正區,忠孝東路
李思儀中醫診所,121.5284571,25.03701966,臺北市中正區金山南路1段73巷6號,中正區,金山南路
宏達中醫診所,121.5336536,25.01420033,臺北市中正區汀州路三段211號2樓,中正區,汀州路
榮星中醫診所,121.5230452,25.02588646,臺北市中正區羅斯福路二段140號2樓之1,中正區,羅斯福路
六節中醫診所,121.5232898,25.02272624,臺北市中正區汀州路二段198號,中正區,汀州路
喜豐堂中醫診所,121.5113885,25.04440835,臺北市中正區博愛路88號(使用第一層),中正區,博愛路
時代中醫診所,121.5319036,25.0168101,臺北市中正區羅斯福路三段272號10樓,中正區,羅斯福路
天心中醫診所,121.5119988,25.0441576,臺北市中正區武昌街一段33號(1樓、2樓、3樓)、武昌街一段35號4樓,中正區,武昌街
東門中醫診所,121.5301781,25.03431694,臺北市中正區連雲街81號2樓,中正區,連雲街
茂澤中醫診所,121.5303148,25.04253452,臺北市中正區臨沂街6巷5號,中正區,臨沂街
汀洲中醫診所,121.5225884,25.02357735,臺北市中正區汀州路二段213號,中正區,汀州路
厚德中醫診所,121.5172929,25.03128302,臺北市中正區南昌路一段53號,中正區,南昌路
怡安堂中醫診所,121.5278194,25.03584085,臺北市中正區金山南路一段125號、125之1號,中正區,金山南路
極上中醫診所,121.529754,25.01692596,臺北市中正區汀州路三段105號,中正區,汀州路
薛宏昇中醫診所,121.5264258,25.04386058,臺北市中正區忠孝東路一段176號4樓之2,中正區,忠孝東路
彭燕婷中醫診所,121.5301579,25.03415099,臺北市中正區連雲街85號2樓,中正區,連雲街
沂禾中醫診所,121.5316558,25.0397682,臺北市中正區臨沂街33巷38號,中正區,臨沂街
羅福中醫診所,121.5220446,25.02725181,臺北市中正區羅斯福路二段70號6樓之6,中正區,羅斯福路
國健中醫診所,121.5148967,25.04612062,臺北市中正區館前路6號7樓之7,中正區,館前路
南陽中醫診所,121.5161727,25.0454206,臺北市中正區南陽街3號7樓之2,中正區,南陽街
濟群欣中醫診所,121.5113412,25.04485972,臺北市中正區博愛路70號2樓,中正區,博愛路
溪垣中醫診所,121.5285944,25.03414312,臺北市中正區信義路二段153號(實際營業住址:1樓、2樓),中正區,信義路
大道中醫診所,121.5183839,25.04617184,臺北市中正區忠孝西路一段41號8樓之6,中正區,忠孝西路
睿鳴堂中醫診所,121.5249131,25.04597301,臺北市中正區北平東路20之3號,中正區,北平東路
建成中醫診所,121.5147962,25.02746059,臺北市中正區和平西路一段172號、174號、176號、170號2樓之1、170號3樓之1、170號3樓之2,中正區,和平西路
醫療財團法人徐元智先生醫藥基金會遠東聯合診所,121.5110354,25.04300291,臺北市中正區永綏街8至14號,中正區,永綏街
醫療財團法人好心肝基金會好心肝診所,121.5168566,25.0444824,臺北市中正區公園路30號2樓之2、8樓之1、8樓之2,中正區,公園路
醫療財團法人台灣血液基金會台北捐血中心,121.5172823,25.0327805,臺北市中正區南海路１號３樓＆北投區立德路１２３號,中正區,南海路
清川牙醫診所,121.5078302,25.0297504,臺北市中正區汀州路1段118號,中正區,汀州路
橙品牙醫診所,121.5324375,25.03798371,臺北市中正區仁愛路2段110號2樓,中正區,仁愛路
富麗牙醫診所,121.5189884,25.02670419,臺北市中正區和平西路1段69號,中正區,和平西路
德華牙醫診所,121.5130275,25.04199951,臺北市中正區重慶南路1段 110號,中正區,重慶南路
謝明吉口腔顎面外科牙醫診所,121.5180284,25.04582575,臺北市中正區忠孝西路一段6號2、3樓,中正區,忠孝西路
雙子星牙醫診所,121.5149067,25.04487862,臺北市中正區館前路26號2樓,中正區,館前路
?琮牙醫診所,121.5134926,25.04353887,臺北市中正區襄陽路41號、43號,中正區,襄陽路
品瑞牙醫診所,121.5195425,25.02830918,臺北市中正區南昌路二段13號,中正區,南昌路
信義東暘牙醫診所,121.5275492,25.03466769,臺北市中正區金山南路一段155號2樓,中正區,金山南路
新芽牙醫診所,121.5312795,25.03755668,臺北市中正區仁愛路二段92巷7號2樓,中正區,仁愛路
雅偲牙醫診所,121.5148961,25.04641805,臺北市中正區館前路2號6樓,中正區,館前路
愛迪牙醫診所,121.5210342,25.0286136,臺北市中正區羅斯福路二段18號2樓,中正區,羅斯福路
東門牙醫診所,121.5279064,25.03455213,臺北市中正區臨沂街79之10號,中正區,臨沂街
蘇黎世牙醫診所,121.5226827,25.0263915,臺北市中正區羅斯福路二段116號5樓之1,中正區,羅斯福路
典雅牙醫診所,121.5278233,25.03420257,臺北市中正區信義路二段123號、123號2樓,中正區,信義路
氧樂多牙醫診所,121.525302,25.04476964,臺北市中正區紹興北街3號4樓,中正區,紹興北街
齊杏齒顎矯正專科牙醫診所,121.5284647,25.04331229,臺北市中正區忠孝東路二段58號(實際營業地址:1樓),中正區,忠孝東路
華泰牙醫診所,121.515879,25.04545235,臺北市中正區許昌街30號3樓,中正區,許昌街
公園景福牙醫診所,121.516754,25.04410123,臺北市中正區公園路32號9樓,中正區,公園路
齊美牙醫診所,121.5229481,25.02602274,臺北市中正區羅斯福路二段136號7樓,中正區,羅斯福路
美國傳奇牙醫診所,121.5330019,25.01521386,臺北市中正區羅斯福路四段24巷6之1號,中正區,羅斯福路
怡樺牙醫診所,121.5316615,25.016361,臺北市中正區羅斯福路三段244巷2弄22號,中正區,羅斯福路
維昕牙醫診所,121.5190516,25.02618118,臺北市中正區牯嶺街93號(實際營業:1、2樓),中正區,牯嶺街
合睿牙醫診所,121.534274,25.01450358,臺北市中正區羅斯福路四段68號7樓之11,中正區,羅斯福路
林志聲牙醫診所,121.5315479,25.04205609,臺北市中正區臨沂街13巷16號,中正區,臨沂街
美日牙醫診所,121.534274,25.01450358,臺北市中正區羅斯福路四段68號9樓之1,中正區,羅斯福路
永恆牙醫診所,121.5278675,25.01932106,臺北市中正區辛亥路一段17巷6號3樓,中正區,辛亥路
博齡牙醫診所,121.5337527,25.01500664,臺北市中正區羅斯福路四段50號3樓之4,中正區,羅斯福路
仁崇牙醫診所,121.5325364,25.03879405,臺北市中正區新生南路一段122之3號2樓,中正區,新生南路
師院牙醫診所,121.5276059,25.0206141,臺北市中正區師大路159號、159號地下,中正區,師大路
怡賀牙醫診所,121.5325038,25.04119529,臺北市中正區新生南路一段56號6樓,中正區,新生南路
華慶牙醫診所,121.5068224,25.02723987,臺北市中正區中華路二段339號,中正區,中華路
慶輝牙醫診所,121.5148561,25.02963058,臺北市中正區寧波西街96號,中正區,寧波西街
嘉貝牙醫診所,121.5315251,25.03382364,臺北市中正區信義路二段257號,中正區,信義路
東北大牙醫診所,121.5320344,25.0166797,臺北市中正區羅斯福路三段276號(實際營業地址：1、2樓),中正區,羅斯福路
家禾牙醫診所,121.5077609,25.033272,臺北市中正區延平南路195巷5號,中正區,延平南路
雅德思牙醫診所,121.5130981,25.04366224,臺北市中正區重慶南路一段66號(實際營業地址:地下層、一層及夾層),中正區,重慶南路
良鑫牙醫診所,121.5210944,25.0269883,臺北市中正區和平西路一段19號3樓之1,中正區,和平西路
幸吉堂中醫診所,121.5107092,25.0272926,臺北市中正區汀州一段１６９號,中正區,汀州一段
李家雄中醫診所,121.5278505,25.03605999,臺北市中正區金山南路一段１２１號３Ｆ,中正區,金山南路
漢神中醫診所,121.5093581,25.02796074,臺北市中正區汀州路一段２０２號,中正區,汀州路
同安中醫診所,121.5224292,25.02480543,臺北市中正區同安街４１號,中正區,同安街
仁愛中醫診所,121.5075431,25.03410109,臺北市中正區延平南路１８７號,中正區,延平南路
德義堂中醫診所,121.5189123,25.03347679,臺北市中正區林森南路127號,中正區,林森南路
吳龍源中醫診所,121.5204234,25.03014633,臺北市中正區羅斯福路一段１３１號三樓,中正區,羅斯福路
寧波中醫診所,121.5160937,25.0299108,臺北市中正區寧波西街80之1號,中正區,寧波西街
珍仁堂中醫診所,121.5326256,25.04400899,臺北市中正區新生南路一段１１０一２號１樓,中正區,新生南路
儒德中醫診所,121.5168367,25.03159145,臺北市中正區南昌路一段50號,中正區,南昌路
和平中醫診所,121.506261,25.03283119,臺北市中正區和平西路二段123號,中正區,和平西路
李明潤中醫診所,121.5189777,25.03141626,臺北市中正區羅斯福路一段二十八號二樓之一,中正區,羅斯福路
順天中醫診所,121.5109881,25.04737171,臺北市中正區忠孝西路一段122號4樓,中正區,忠孝西路
勝昌現代中醫診所,121.5121979,25.02880033,臺北市中正區和平西路二段５６之１號,中正區,和平西路
恆美中醫診所,121.5157048,25.04350309,臺北市中正區襄陽路九號八樓,中正區,襄陽路
國興中醫診所,121.5195595,25.02502843,臺北市中正區汀州路二段一二九號,中正區,汀州路
洪麗妃中醫診所,121.5325174,25.03944306,臺北市中正區新生南路一段110之4號2樓,中正區,新生南路
張順晶中醫診所,121.5215211,25.02796177,臺北市中正區羅斯福路二段44號5樓,中正區,羅斯福路
嘉柏中醫診所,121.516754,25.04410123,臺北市中正區公園路32號2樓,中正區,公園路
劉桂蘭中醫診所,121.5255356,25.04448776,臺北市中正區忠孝東路一段35號2樓,中正區,忠孝東路
顧安千金中醫診所,121.5252689,25.0452198,臺北市中正區紹興北街8號2樓之1,中正區,紹興北街
劉紀昌中醫診所,121.5188222,25.03163277,臺北市中正區羅斯福路1段24號4樓,中正區,羅斯福路
寶生堂中醫診所,121.5243096,25.0240366,臺北市中正區南昌路二段206號3樓之1,中正區,南昌路
長德中醫診所,121.5207269,25.03169152,臺北市中正區金華街55號,中正區,金華街
峻毅中醫診所,121.5205461,25.0265732,臺北市中正區和平西路一段30號,中正區,和平西路
永康中醫診所,121.5301342,25.03445558,臺北市中正區連雲街75號,中正區,連雲街
逢生牙醫診所,121.5170488,25.03161171,臺北市中正區南昌路一段三十七號二樓,中正區,南昌路
三民牙醫診所,121.5171868,25.0253499,臺北市中正區汀州路二段３０號,中正區,汀州路
名華牙醫診所,121.5101758,25.02736089,臺北市中正區汀州路一段２３６號,中正區,汀州路
同泰牙醫診所,121.520847,25.02465704,臺北市中正區汀州路二段１４７號２樓,中正區,汀州路
康平牙醫診所,121.526288,25.0347185,臺北市中正區信義路二段67號,中正區,信義路
尚義牙醫診所,121.5140375,25.04418984,臺北市中正區懷寧街６２號２Ｆ２０２室,中正區,懷寧街
新欣牙醫診所,121.5321526,25.04029678,臺北市中正區濟南路二段65號2樓,中正區,濟南路
幸安牙醫診所,121.5266366,25.03563739,臺北市中正區杭州南路一段１４３巷３２－２號１樓,中正區,杭州南路
鐘牙醫診所,121.5155061,25.02835915,臺北市中正區重慶南路三段４０號,中正區,重慶南路
聯合牙醫診所,121.5167816,25.03086309,臺北市中正區南昌街一段７４巷１３號,中正區,南昌街
名家牙醫診所,121.5316561,25.04076095,臺北市中正區忠孝東路二段１３４巷２２號,中正區,忠孝東路
志明牙醫診所,121.5161707,25.02992824,臺北市中正區寧波西街８０號,中正區,寧波西街
強弘牙科診所,121.518965,25.02500146,臺北市中正區汀州路二段８６號,中正區,汀州路
快安牙醫診所,121.5220446,25.02725181,臺北市中正區羅斯福路二段７０號５樓之８,中正區,羅斯福路
杏安牙醫診所,121.5241516,25.02244388,臺北市中正區金門街９之６號,中正區,金門街
展光牙醫診所,121.5255348,25.02270995,臺北市中正區羅斯福路３段５０號２樓之一,中正區,羅斯福路
金山牙醫診所,121.5190246,25.0334976,臺北市中正區愛國東路６２號,中正區,愛國東路
名一牙醫診所,121.5120402,25.04465954,臺北市中正區漢口街一段８０巷６弄５號,中正區,漢口街
蕭煥嘉牙醫診所,121.5324999,25.0369907,臺北市中正區新生南路一段１２８號,中正區,新生南路
喜樂牙醫診所,121.5325828,25.0415936,臺北市中正區新生南路一段５０－１號２Ｆ,中正區,新生南路
連生牙醫診所,121.528815,25.03433297,臺北市中正區信義路二段１６１巷4號,中正區,信義路
鼎佳牙醫診所,121.5316832,25.04018621,臺北市中正區濟南路二段５８號２樓之1,中正區,濟南路
明皓牙醫診所,121.5183066,25.0296002,臺北市中正區南昌路一段１２８號,中正區,南昌路
米奇牙醫診所,121.5311683,25.01621375,臺北市中正區羅斯福路三段244巷10弄8號1樓,中正區,羅斯福路
博瀚牙醫診所,121.5285604,25.03948119,臺北市中正區銅山街２４號２樓,中正區,銅山街
仁安牙醫診所,121.5266539,25.04153888,臺北市中正區濟南路二段３之５號,中正區,濟南路
英哲牙醫診所,121.5220588,25.03044078,臺北市中正區杭州南路二段５４號,中正區,杭州南路
紐約牙醫診所,121.5189777,25.03141626,臺北市中正區羅斯福路一段２８號２樓,中正區,羅斯福路
大宇牙醫診所,121.5192605,25.03102708,臺北市中正區羅斯福路一段４６號２Ｆ,中正區,羅斯福路
大全牙醫診所,121.515823,25.04630433,臺北市中正區忠孝西路一段５０號１８樓３７室,中正區,忠孝西路
玉立牙醫診所,121.5268093,25.03572945,臺北市中正區杭州南路一段143巷31號2樓,中正區,杭州南路
黃牙醫診所,121.5113261,25.04500111,臺北市中正區博愛路６８號２Ｆ,中正區,博愛路
大埔牙醫診所,121.505613,25.0336016,臺北市中正區中華路二段９９號,中正區,中華路
九大牙醫診所,121.5302132,25.04283333,臺北市中正區忠孝東路二段９６號１Ｆ,中正區,忠孝東路
天惠牙醫診所,121.5200667,25.02992773,臺北市中正區羅斯福路一段１０２號２Ｆ,中正區,羅斯福路
長弓牙醫診所,121.5268381,25.03804958,臺北市中正區仁愛路二段２６號2樓,中正區,仁愛路
博世牙醫診所,121.5219733,25.04271845,臺北市中正區濟南路一段7之6號、7之7號,中正區,濟南路
玉霖牙醫診所,121.5325607,25.04074003,臺北市中正區新生南路一段６０號２樓,中正區,新生南路
博安牙醫診所,121.5309765,25.0383997,臺北市中正區仁愛路二段７１號２Ｈ室,中正區,仁愛路
瑞石牙醫診所,121.5226183,25.03678487,臺北市中正區信義路一段13之4號,中正區,信義路
偉華牙醫診所,121.5224086,25.02371918,臺北市中正區汀州路二段203號,中正區,汀州路
誠忠牙醫診所,121.5235002,25.02195263,臺北市中正區金門街１２－８號,中正區,金門街
美東牙醫診所,121.5288762,25.03847546,臺北市中正區仁愛路二段４３號２樓,中正區,仁愛路
華恩牙醫診所,121.5151654,25.02735835,臺北市中正區和平西路一段一五四號,中正區,和平西路
安安牙醫診所,121.5268642,25.04275821,臺北市中正區杭州南路一段15之1號12樓,中正區,杭州南路
慈聖牙醫診所,121.519129,25.03191157,臺北市中正區羅斯福路一段五十五號一樓,中正區,羅斯福路
大佳牙醫診所,121.5324517,25.03949548,臺北市中正區新生南路一段１１０號,中正區,新生南路
優登牙醫診所,121.5184844,25.02644919,臺北市中正區和平西路一段八十八號,中正區,和平西路
皓齒牙醫診所,121.5204234,25.03014633,臺北市中正區羅斯福路一段一三一號四樓,中正區,羅斯福路
君品牙醫診所,121.5073442,25.03391332,臺北市中正區延平南路232號,中正區,延平南路
和逸牙醫診所,121.5212196,25.02360021,臺北市中正區同安街58號1樓,中正區,同安街
劉永生牙醫診所,121.5279206,25.04131795,臺北市中正區濟南路二段19號2樓,中正區,濟南路
西北聯合牙醫診所,121.5349644,25.01259973,臺北市中正區汀州路三段１９０號二樓之１,中正區,汀州路
金恩牙醫診所,121.5209774,25.02868665,臺北市中正區羅斯福路二段16號3樓,中正區,羅斯福路
拉圖牙醫診所,121.5256442,25.04404719,臺北市中正區忠孝東路一段146號1、2樓,中正區,忠孝東路
璞鼎牙醫診所,121.5244672,25.04558104,臺北市中正區林森北路9巷12號2樓,中正區,林森北路
誠伸牙醫診所,121.5305375,25.03384548,臺北市中正區信義路二段213號二樓,中正區,信義路
長齡牙醫診所,121.5273861,25.02063762,臺北市中正區師大路163號,中正區,師大路
琠雅牙醫診所,121.5226328,25.0235399,臺北市中正區汀州路二段215號,中正區,汀州路
廖春美牙醫診所,121.5163587,25.02997083,臺北市中正區寧波西街78號2樓,中正區,寧波西街
南門牙醫診所,121.5208158,25.02961026,臺北市中正區羅斯福路2段1號2樓之1,中正區,羅斯福路
展望牙醫診所,121.5219211,25.04270223,臺北市中正區濟南路1段7號2樓,中正區,濟南路
典樺牙醫診所,121.5273295,25.03547162,臺北市中正區金山南路1段108號2樓、2樓之1 ,中正區,金山南路
碩田牙醫診所,121.5230401,25.04467171,臺北市中正區忠孝東路一段54號5樓之1、54號5樓之2,中正區,忠孝東路
威尼斯美學診所,121.5116118,25.04343958,臺北市中正區博愛路83號2樓,中正區,博愛路
悠媞時尚診所,121.515879,25.04545235,臺北市中正區許昌街30號4樓,中正區,許昌街
佳妍診所,121.5229481,25.02602274,臺北市中正區羅斯福路2段136號2樓,中正區,羅斯福路
博士眼科診所,121.5220446,25.02725181,臺北市中正區羅斯福路二段70號4樓之6、70號4樓之7、70號4樓之8,中正區,羅斯福路
幸福45號診所,121.5179344,25.04628235,臺北市中正區忠孝西路一段45號2、3樓,中正區,忠孝西路
恩加診所,121.515823,25.04630433,"臺北市中正區忠孝西路1段50號18樓之36,38",中正區,忠孝西路
蔡瑞芳眼科診所,121.5195526,25.03142485,臺北市中正區羅斯福路一段73號(實際營業地址一層)、75號2樓,中正區,羅斯福路
小千醫師診所,121.5316285,25.04107676,臺北市中正區忠孝東路二段134巷16號,中正區,忠孝東路
蘭心診所,121.5195177,25.02833674,臺北市中正區南昌路二段11號、15號,中正區,南昌路
祈約美醫皮膚科診所,121.5240563,25.04484061,臺北市中正區忠孝東路一段13號7樓,中正區,忠孝東路
立達診所,121.5231299,25.0445949,臺北市中正區忠孝東路一段54之1號、54之2號、54號2樓、54號3樓,中正區,忠孝東路
凱美力醫美整形外科診所,121.5337527,25.01500664,臺北市中正區羅斯福路四段50號2樓,中正區,羅斯福路
珍顏唯上診所,121.5148961,25.04641805,臺北市中正區館前路2號6樓,中正區,館前路
惠森復健科診所,121.5254452,25.02112716,臺北市中正區師大路172號、172號之1號,中正區,師大路
幸福天成診所,121.5179344,25.04628235,臺北市中正區忠孝西路一段45號2、3樓,中正區,忠孝西路
皇妍時尚整形外科診所,121.5180284,25.04582575,臺北市中正區忠孝西路一段6號8樓,中正區,忠孝西路
東妍診所,121.5288391,25.03442192,臺北市中正區信義路二段161巷8號2樓、8號2樓之1、12號(實際營業地址1、2樓),中正區,信義路
宜康診所,121.532466,25.03527506,臺北市中正區新生南路一段148號,中正區,新生南路
藝群台北診所,121.5124848,25.04721182,臺北市中正區忠孝西路一段102號4樓,中正區,忠孝西路
翔美時尚整形外科診所,121.5180284,25.04582575,臺北市中正區忠孝西路一段6號13樓,中正區,忠孝西路
濰視眼科診所,121.5151275,25.04533441,臺北市中正區館前路43號2樓,中正區,館前路
大安皮膚專科診所,121.5322622,25.03380853,臺北市中正區信義路二段281號、281號2樓,中正區,信義路
君綺美麗診所,121.5180284,25.04582575,臺北市中正區忠孝西路一段6號13樓,中正區,忠孝西路
美嘉美整形外科診所,121.5313467,25.03382685,臺北市中正區信義路二段251號5樓,中正區,信義路
日明耀診所,121.5130979,25.04360909,臺北市中正區重慶南路一段66之1號2樓之1,中正區,重慶南路
維格醫美診所,121.5095179,25.04500146,臺北市中正區中華路一段39號16樓,中正區,中華路
星和診所,121.5148961,25.04641805,臺北市中正區館前路2號6樓之1,中正區,館前路
漢蒂妮醫美診所,121.5149085,25.04466557,臺北市中正區館前路34號9樓,中正區,館前路
立光診所,121.5113602,25.04467234,臺北市中正區博愛路76號2樓,中正區,博愛路
和眾綜合診所,121.5180284,25.04582575,臺北市中正區忠孝西路一段6號,中正區,忠孝西路
家禾診所,121.513373,25.02765764,臺北市中正區三元街217號、217號2樓,中正區,三元街
虹約復健專科診所,121.5269608,25.03438881,臺北市中正區信義路二段91號2樓之2,中正區,信義路
百麗診所,121.5226184,25.04274483,臺北市中正區林森南路10號6樓之2,中正區,林森南路
波菲特醫美診所,121.5226827,25.0263915,臺北市中正區羅斯福路二段116號4樓之1,中正區,羅斯福路
首選整形診所,121.5179344,25.04628235,臺北市中正區忠孝西路一段45號2、3樓,中正區,忠孝西路
江恩婦產科診所,121.5169585,25.04544025,臺北市中正區許昌街8號,中正區,許昌街
元鼎診所,121.527277,25.04363846,臺北市中正區忠孝東路二段14號2樓,中正區,忠孝東路
小禾馨懷寧小兒專科診所,121.5133326,25.04310036,臺北市中正區重慶南路一段99號2樓,中正區,重慶南路
靚白天使時尚美學診所,121.5133719,25.04610266,臺北市中正區重慶南路一段13號9樓,中正區,重慶南路
身新醫學診所,121.5301482,25.03407553,臺北市中正區連雲街87號5樓,中正區,連雲街
李明儒耳鼻喉科診所,121.5068426,25.02721822,臺北市中正區中華路二段341號,中正區,中華路
禾馨懷寧眼科診所,121.5133326,25.04310036,臺北市中正區重慶南路一段99號2樓,中正區,重慶南路
站前淨妍醫美診所,121.514903,25.04526952,臺北市中正區館前路20號4樓,中正區,館前路
古亭光澤診所,121.5226827,25.0263915,臺北市中正區羅斯福路2段116號、116號2樓、116號2樓之1,中正區,羅斯福路
光澤晶漾診所,121.5148937,25.04540268,臺北市中正區館前路18號6樓,中正區,館前路
站前愛爾麗整形外科診所,121.5180284,25.04582575,臺北市中正區忠孝西路一段6號8樓,中正區,忠孝西路
好甘心診所,121.5168566,25.0444824,臺北市中正區公園路30號9樓之1、9樓之2,中正區,公園路
目急國際診所,121.5096651,25.04423233,臺北市中正區武昌街一段77號6樓之17,中正區,武昌街
元泰診所,121.5248173,25.02353325,臺北市中正區羅斯福路三段2號2樓,中正區,羅斯福路
懷寧復健科診所,121.5139321,25.04175139,臺北市中正區懷寧街110號,中正區,懷寧街
美好健康診所,121.5301444,25.03420354,臺北市中正區連雲街83號(實際營業地址:1樓、2樓、3樓),中正區,連雲街
大心古亭診所,121.5243096,25.0240366,臺北市中正區南昌路二段206號5樓之1,中正區,南昌路
博士診所,121.5160566,25.04520853,臺北市中正區南陽街8號地下(地下一層),中正區,南陽街
衡觀診所,121.5129843,25.04221112,臺北市中正區衡陽路20號6樓,中正區,衡陽路
敏旗診所,121.5275492,25.03466769,臺北市中正區金山南路1段155號5樓,中正區,金山南路
思源牙醫診所,121.5241536,25.02418385,臺北市中正區南昌路二段200號4樓,中正區,南昌路
中明牙科診所,121.512481,25.02666053,臺北市中正區汀州路一段２３５號,中正區,汀州路
佳音牙醫診所,121.5166949,25.03209181,臺北市中正區南昌路一段１１號１Ｆ,中正區,南昌路
聯嘉牙醫診所,121.5243096,25.0240366,臺北市中正區南昌路二段２０６號２樓之１,中正區,南昌路
慶聲牙醫診所,121.5207974,25.03262906,臺北市中正區寧波東街２４巷１２號,中正區,寧波東街
俊廣牙醫診所,121.5161727,25.0454206,臺北市中正區南陽街３號３Ｆ,中正區,南陽街
華山周牙醫診所,121.5316488,25.0418416,臺北市中正區忠孝東路二段６號2樓,中正區,忠孝東路
新光牙醫診所,121.5171527,25.03057171,臺北市中正區寧波西街６５號,中正區,寧波西街
清河牙醫診所,121.5261775,25.03477001,臺北市中正區信義路二段６３號二樓,中正區,信義路
林小兒科內科診所,121.5122993,25.04276019,臺北市中正區沅陵街２６之２號,中正區,沅陵街
敦智內科診所,121.5142485,25.04543617,臺北市中正區懷寧街１９號,中正區,懷寧街
吉星診所,121.5216651,25.04384249,臺北市中正區青島東路４－５號１樓,中正區,青島東路
劉瑞聰診所,121.5091803,25.02812026,臺北市中正區汀州路一段１９４號,中正區,汀州路
孫睿亮診所,121.5278505,25.03605999,臺北市中正區金山南路一段１２１號,中正區,金山南路
鄭文宗耳鼻喉科診所,121.5318328,25.03381158,臺北市中正區信義路二段２６７號,中正區,信義路
古亭中心耳鼻喉科診所,121.5042507,25.03097603,臺北市中正區中華路二段１６１號,中正區,中華路
林診所,121.5202927,25.03281714,臺北市中正區寧波東街２２號,中正區,寧波東街
朱小兒科診所,121.5240029,25.0221175,臺北市中正區汀州路二段２２０號１樓,中正區,汀州路
雙合耳鼻喉科聯合診所,121.5074467,25.03024021,臺北市中正區汀州路一段96號,中正區,汀州路
張孟源內科診所,121.5064406,25.0276502,臺北市中正區中華路二段３２５號,中正區,中華路
周正成小兒科診所,121.5233565,25.04062499,臺北市中正區徐州路24號,中正區,徐州路
丞泰耳鼻喉科診所,121.5172724,25.0309959,臺北市中正區南昌路一段７８號,中正區,南昌路
蕭耳鼻喉科診所,121.523485,25.02281464,臺北市中正區汀州路二段二六一號,中正區,汀州路
彭內科診所,121.5177857,25.0261185,臺北市中正區廈門街35號,中正區,廈門街
車參聖整形外科診所,121.5133719,25.04610266,臺北市中正區重慶南路一段13號6樓、7樓,中正區,重慶南路
池振坤耳鼻喉科診所,121.5174145,25.03080539,臺北市中正區南昌路一段88號2樓之1,中正區,南昌路
劉家庭醫學科診所,121.5246603,25.03609923,臺北市中正區杭州南路一段一四五號一、二樓,中正區,杭州南路
柯滄銘婦產科診所,121.5226184,25.04274482,臺北市中正區林森南路10號、10之1號、10號2樓、12號2樓、10號4樓、10號4樓之2,中正區,林森南路
蕙瑛婦產科診所,121.515823,25.04630433,臺北市中正區忠孝西路一段五十號二十四樓之二十四,中正區,忠孝西路
林超群眼科診所,121.5132293,25.04157054,臺北市中正區重慶南路一段143號2樓,中正區,重慶南路
紹毅內兒科診所,121.5310673,25.04381789,臺北市中正區八德路一段50號、50 號2樓、52號、52號(實際營業地址2樓),中正區,八德路
惠生診所,121.5281858,25.03552542,臺北市中正區臨沂街69之1號,中正區,臨沂街
古亭龍生診所,121.5087972,25.02852945,臺北市中正區汀州路一段１７４號,中正區,汀州路
羅綺皮膚科診所,121.5219211,25.04270223,臺北市中正區濟南路一段7號4樓,中正區,濟南路
戰痘診所,121.5161286,25.04384901,臺北市中正區南陽街21之6號,中正區,南陽街
同泰診所,121.5208735,25.0244653,臺北市中正區汀州路二段１３６號,中正區,汀州路
親子診所,121.5124433,25.0286311,臺北市中正區和平西路二段５０號,中正區,和平西路
惠恩診所,121.5309348,25.03972527,臺北市中正區濟南路二段四十八巷三至二號,中正區,濟南路
李相台診所,121.532466,25.03527506,臺北市中正區新生南路一段１４８號２樓之１,中正區,新生南路
長虹診所,121.5174034,25.04548954,臺北市中正區公園路十三號一、二、四樓，地下一樓,中正區,公園路
蔡明勳診所,121.521454,25.02804945,臺北市中正區羅斯福路二段４０號１樓,中正區,羅斯福路
劉秉誠診所,121.53256,25.04032717,臺北市中正區新生南路一段92號2樓,中正區,新生南路
拉菲爾人本診所,121.5151238,25.04496242,臺北市中正區館前路49號11樓,中正區,館前路
怡和診所,121.5237191,25.02236086,臺北市中正區汀州路二段二一二號,中正區,汀州路
奕康耳鼻喉科診所,121.5299712,25.03454651,臺北市中正區連雲街72號2樓,中正區,連雲街
李世輝耳鼻喉科診所,121.5177813,25.03061544,臺北市中正區南昌路一段79號,中正區,南昌路
大佳婦產科診所,121.5166104,25.04469865,臺北市中正區信陽街9號2樓,中正區,信陽街
東京風采整形外科診所,121.5280471,25.03802494,臺北市中正區仁愛路二段48號7樓,中正區,仁愛路
健康101診所,121.519083,25.02591453,臺北市中正區牯嶺街97號1樓,中正區,牯嶺街
站前大學眼科診所,121.5148954,25.04581397,臺北市中正區館前路8號3樓,中正區,館前路
美學院整形外科診所,121.53263,25.01609714,臺北市中正區羅斯福路三段312號7樓,中正區,羅斯福路
新生活診所,121.5324852,25.03604425,臺北市中正區新生南路一段140號2樓,中正區,新生南路
風華整形外科診所,121.5180284,25.04582575,臺北市中正區忠孝西路一段6號2、3樓,中正區,忠孝西路
新公園診所,121.5161388,25.04348698,臺北市中正區襄陽路3號3樓,中正區,襄陽路
好健康診所,121.5168566,25.0444824,臺北市中正區公園路30號11樓,中正區,公園路
美兆診所,121.515302,25.04622582,臺北市中正區忠孝西路1段66號44.45樓,中正區,忠孝西路
美診所,121.5322516,25.0345325,臺北市中正區新生南路1段56號4樓、56巷2號,中正區,新生南路
星采皮膚專科診所,121.519057,25.03131016,臺北市中正區羅斯福路一段32號2樓,中正區,羅斯福路
永愉診所,121.5230401,25.04467171,臺北市中正區忠孝東路1段54號3樓,中正區,忠孝東路
長春藤台北忠孝診所,121.515823,25.04630433,臺北市中正區忠孝西路1段50號27樓,中正區,忠孝西路
?安診所,121.5208514,25.02663385,臺北市中正區和平西路一段20號5樓,中正區,和平西路
悅心診所,121.5212094,25.02909087,臺北市中正區羅斯福路2段7之2號、7之3號,中正區,羅斯福路
美麗新診所,121.5133485,25.04495904,臺北市中正區重慶南路1段43號2樓之1、2樓之2,中正區,重慶南路
時尚診所,121.5187623,25.04607847,臺北市中正區忠孝西路一段33號10樓,中正區,忠孝西路
米蘭時尚診所,121.5258741,25.04440346,臺北市中正區忠孝東路1段43號、45號、45號2樓之1、45號2樓之2、45號2樓之3、45號2樓之5、47號、47之1號、45號10樓之1、45號10樓之2,中正區,忠孝東路
宏孕診所,121.5325038,25.04119528,臺北市中正區新生南路1段56號14、15樓,中正區,新生南路
禾馨婦產科診所,121.5139896,25.04310023,臺北市中正區懷寧街78號、78號2樓,中正區,懷寧街
慕顏時尚美學診所,121.5137609,25.04241394,臺北市中正區衡陽路7號14樓,中正區,衡陽路
渾然天成診所,121.5179344,25.04628235,臺北市中正區忠孝西路1段45號2、3樓,中正區,忠孝西路
台北諾貝爾眼科診所,121.5174034,25.04548954,臺北市中正區公園路13號5樓,中正區,公園路
永康身心診所,121.527716,25.0356227,臺北市中正區金山南路一段127號,中正區,金山南路
祈新婦產科診所,121.5139896,25.04310023,臺北市中正區懷寧街78號9、10樓,中正區,懷寧街
平安身心精神科診所,121.5298122,25.01884737,臺北市中正區羅斯福路三段218號,中正區,羅斯福路
雙連宏福中醫診所,121.5203709,25.05747926,臺北市大同區民生西路78號5樓,大同區,民生西路
御聖堂中醫診所,121.5113803,25.05861093,臺北市大同區延平北路二段184號一層,大同區,延平北路
松興堂中醫診所,121.514335,25.05505973,臺北市大同區重慶北路二段35號,大同區,重慶北路
莊雅惠中醫診所,121.509782,25.05790062,臺北市大同區迪化街一段141號2樓,大同區,迪化街
順天堂中醫診所,121.514292,25.06599215,臺北市大同區昌吉街79號1樓,大同區,昌吉街
林志宏中醫診所,121.511647,25.05428681,臺北市大同區延平北路二段14號,大同區,延平北路
濟民中醫診所,121.51357,25.05742086,臺北市大同區重慶北路二段106號,大同區,重慶北路
控八控控中醫診所,121.5181416,25.06795542,臺北市大同區承德路三段148之1號,大同區,承德路
天一中醫診所,121.5134568,25.06671652,臺北市大同區重慶北路三段98號(實際營業地址:1樓及地下一層),大同區,重慶北路
泓斌中醫診所,121.5160806,25.06381576,臺北市大同區大龍街27號,大同區,大龍街
明昇中醫診所,121.5192505,25.05372831,臺北市大同區赤峰街13號,大同區,赤峰街
人生中醫診所,121.5136858,25.0563506,臺北市大同區重慶北路二段74號,大同區,重慶北路
重慶堂中醫診所,121.5115243,25.05640263,臺北市大同區延平北路2段88-1號,大同區,延平北路
正德中醫診所,121.5173749,25.06316576,臺北市大同區民權西路125號(實際營業地址：5樓),大同區,民權西路
頌華中醫診所,121.5184452,25.04959486,臺北市大同區華陰街63號,大同區,華陰街
迪化中醫診所,121.5092876,25.06223149,臺北市大同區迪化街一段315號（實際營業場所:第一層）,大同區,迪化街
楊基中醫診所,121.5199968,25.06023007,臺北市大同區錦西街50之1號(實際營業場所:第一層),大同區,錦西街
正和中醫診所,121.5142619,25.05535163,臺北市大同區重慶北路二段51號,大同區,重慶北路
健生中醫診所,121.5186047,25.06790595,臺北市大同區承德路三段151號,大同區,承德路
翰鳴堂中醫診所,121.5144662,25.05267538,臺北市大同區重慶北路一段83巷6號,大同區,重慶北路
救鼻堂中醫診所,121.51829,25.07181159,臺北市大同區庫倫街48之4號2樓,大同區,庫倫街
安世中醫診所,121.5139674,25.05288981,臺北市大同區重慶北路一段102號(實際營業地址:1樓),大同區,重慶北路
吳忠澤中醫診所,121.5165474,25.05334965,臺北市大同區南京西路222號,大同區,南京西路
光點中醫診所,121.5135883,25.07187416,臺北市大同區重慶北路三段274之1號(實際開業樓層：1樓及夾層),大同區,重慶北路
杏菖中醫診所,121.5139661,25.05520844,臺北市大同區重慶北路二段42號,大同區,重慶北路
德和中醫診所,121.5100752,25.05431549,臺北市大同區迪化街一段22號(實際營業地址：1樓),大同區,迪化街
生元德中醫診所,121.5122163,25.0545799,臺北市大同區南京西路185巷14號,大同區,南京西路
原平中醫診所,121.5166033,25.05726585,臺北市大同區民生西路199號,大同區,民生西路
清松堂中醫診所,121.5170647,25.05015261,臺北市大同區承德路一段17號5樓之1、5樓之2,大同區,承德路
京水堂中醫診所,121.5201042,25.05110858,臺北市大同區南京西路22號3樓,大同區,南京西路
佳安中醫診所,121.5147226,25.07304015,臺北市大同區哈密街87號,大同區,哈密街
龍德中醫診所,121.5169505,25.05134876,臺北市大同區承德路一段44號,大同區,承德路
西寧安泰牙醫診所,121.5087009,25.05239506,臺北市大同區西寧北路１５號1樓,大同區,西寧北路
杏仁牙醫診所,121.5120586,25.07220664,臺北市大同區酒泉街１９３號２樓,大同區,酒泉街
欣樺牙醫診所,121.5156897,25.05175236,臺北市大同區太原路７５號２樓,大同區,太原路
建成牙醫診所,121.5088966,25.05418172,臺北市大同區西寧北路５１－１號２樓,大同區,西寧北路
維明牙醫診所,121.5110148,25.06438397,臺北市大同區延平北路三段３４號,大同區,延平北路
劍橋牙醫診所,121.5160056,25.06183286,臺北市大同區民權西路144 巷13號1樓、B1,大同區,民權西路
李牙醫診所,121.5200642,25.07077323,臺北市大同區酒泉街八十六、八十八號一樓,大同區,酒泉街
美堅牙醫診所,121.5109808,25.06827838,臺北市大同區延平北路三段１１５號２樓,大同區,延平北路
哲安牙醫診所,121.5128097,25.05461377,臺北市大同區南京西路１６７巷３－３號２Ｆ,大同區,南京西路
順然牙醫診所,121.5110518,25.06713765,臺北市大同區延平北路三段８１號,大同區,延平北路
宏嘉牙醫診所,121.5192364,25.05367613,臺北市大同區赤峰街１１號１樓,大同區,赤峰街
長興牙醫診所,121.5114659,25.05723262,臺北市大同區延平北路二段124號2樓之1,大同區,延平北路
章牙醫診所,121.5110154,25.05769472,臺北市大同區延平北路二段144巷13之1號,大同區,延平北路
仁偉牙醫診所,121.5160056,25.06183286,"臺北市大同區民權西路１４４巷1,３號1樓",大同區,民權西路
曾鳳飛牙醫診所,121.5158089,25.05126147,臺北市大同區長安西路１１７號二樓,大同區,長安西路
良朋牙醫診所,121.5128396,25.05260106,臺北市大同區天水路32號2樓,大同區,天水路
旭揚牙醫診所,121.517554,25.05119162,臺北市大同區承德路一段４１巷１２號,大同區,承德路
朝陽牙醫診所,121.5116853,25.05681768,臺北市大同區延平北路二段１０９號２樓,大同區,延平北路
全品牙醫診所,121.5146063,25.05971805,臺北市大同區寧夏路１１０－３號,大同區,寧夏路
三德牙醫診所,121.5181427,25.06664339,臺北市大同區承德路三段１００號一樓,大同區,承德路
英瑞牙醫診所,121.513889,25.05747389,臺北市大同區重慶北路二段１１５號2樓,大同區,重慶北路
欣華牙醫診所,121.5189266,25.05731621,臺北市大同區民生西路123號、承德路2段137號8樓之4,大同區,民生西路
欣容牙醫診所,121.5137329,25.06209694,臺北市大同區重慶北路二段２３５號,大同區,重慶北路
大仁牙醫診所,121.5188698,25.05931608,臺北市大同區雙連街五十四號一樓,大同區,雙連街
台一牙醫診所,121.5191316,25.05308236,臺北市大同區南京西路６１號７樓,大同區,南京西路
傑品牙醫診所,121.5159337,25.075034,臺北市大同區哈蜜街５９巷３１弄１號,大同區,哈蜜街
博群牙醫診所,121.5114936,25.06001604,臺北市大同區延平北路二段２１９號,大同區,延平北路
永東牙醫診所,121.5112149,25.06451266,臺北市大同區延平北路三段二十七號,大同區,延平北路
永新聯合牙醫診所,121.5155322,25.06846547,臺北市大同區民族西路156號,大同區,民族西路
天喜牙醫診所,121.5162125,25.06845216,臺北市大同區民族西路一三八號一樓,大同區,民族西路
立全牙醫診所,121.5119957,25.05705381,臺北市大同區民生西路三二一之二號,大同區,民生西路
福進牙醫診所,121.5122792,25.05549955,臺北市大同區延平北路二段61巷20號1樓,大同區,延平北路
欣恩牙醫診所,121.513737,25.06230955,臺北市大同區重慶北路二段235之5號,大同區,重慶北路
雅晴牙醫診所,121.5116466,25.05740086,臺北市大同區延平北路二段127號,大同區,延平北路
新林牙醫診所,121.5140421,25.0730029,臺北市大同區哈密街113號,大同區,哈密街
永達牙醫診所,121.5118629,25.0537599,臺北市大同區延平北路一段155號３樓,大同區,延平北路
大龍牙醫診所,121.5135937,25.07262608,臺北市大同區重慶北路三段278-1.278-2號2樓,大同區,重慶北路
松柏牙醫診所,121.5134561,25.0666243,臺北市大同區重慶北路三段96號,大同區,重慶北路
晶悅美學牙醫診所,121.5188847,25.05731117,臺北市大同區民生西路138號,大同區,民生西路
京站全人牙醫診所,121.5185722,25.04955795,臺北市大同區華陰街59號2樓,大同區,華陰街
忻安牙醫診所,121.5144494,25.06584245,臺北市大同區昌吉街122號,大同區,昌吉街
路易牙醫診所,121.5191483,25.04942576,臺北市大同區華陰街43號,大同區,華陰街
大翔牙醫診所,121.5135937,25.07262608,臺北市大同區重慶北路三段278之1號8樓,大同區,重慶北路
名柏牙醫診所,121.5196159,25.07102551,臺北市大同區承德路三段247巷26號,大同區,承德路
森田牙醫診所,121.5141704,25.05440006,臺北市大同區重慶北路二段8號1、2、3樓及10號1、2、3樓,大同區,重慶北路
宏麗牙醫診所,121.5189315,25.05311796,臺北市大同區南京西路65號2樓（實際營業：二層、三層）,大同區,南京西路
圓山長麗牙醫診所,121.5147418,25.07212722,臺北市大同區酒泉街121號,大同區,酒泉街
尊榮美學牙醫診所,121.518026,25.06115291,臺北市大同區承德路二段172號、176號,大同區,承德路
御森美學牙醫診所,121.5182324,25.05289409,臺北市大同區南京西路80號,大同區,南京西路
博裕牙醫診所,121.5140061,25.05935592,臺北市大同區保安街3之3號,大同區,保安街
御翔美學牙醫診所,121.5165473,25.05334965,臺北市大同區南京西路220號(實際營業樓層:一層、二層),大同區,南京西路
陳欽銘中醫內科診所,121.5141475,25.06472369,臺北市大同區重慶北路三段２５巷２號,大同區,重慶北路
正記中醫診所,121.5135815,25.05732169,臺北市大同區重慶北路二段一○二號,大同區,重慶北路
信陽中醫診所,121.5150791,25.06365766,臺北市大同區蘭州街５９號,大同區,蘭州街
陳潮宗中醫診所,121.5172105,25.06311536,臺北市大同區民權西路127號、127之1號及129號(實際營業地址:第4層),大同區,民權西路
朱華民中醫診所,121.5144604,25.07545815,臺北市大同區哈密街５９巷５６弄５１號,大同區,哈密街
華源堂中醫診所,121.5118681,25.05687604,臺北市大同區民生西路３１８號,大同區,民生西路
廣順中醫診所,121.5109294,25.06582172,臺北市大同區延平北路三段82號及昌吉街214號,大同區,延平北路
保順中醫診所,121.5144027,25.07302204,臺北市大同區哈密街九十九號,大同區,哈密街
春生堂中醫診所,121.5143493,25.06050638,臺北市大同區寧夏路１３８號,大同區,寧夏路
一聖堂中醫診所,121.5184737,25.0572604,臺北市大同區民生西路一五四號,大同區,民生西路
平安中醫診所,121.5118185,25.05151846,臺北市大同區延平北路一段62號,大同區,延平北路
陳月琴中醫診所,121.5186332,25.06922305,臺北市大同區承德路三段181號,大同區,承德路
全生中醫診所,121.5134045,25.06212298,臺北市大同區重慶北路二段一八四號,大同區,重慶北路
鈞生診所,121.5127879,25.05883559,臺北市大同區甘州街２８號,大同區,甘州街
施小兒科診所,121.5134606,25.06509022,臺北市大同區重慶北路三段２８號,大同區,重慶北路
蔡健生內、神經科診所,121.5167092,25.0690992,臺北市大同區大龍街１８７巷３０號,大同區,大龍街
蔡皮膚科診所,121.513889,25.0574739,臺北市大同區重慶北路二段１１５號,大同區,重慶北路
黃博裕小兒科診所,121.5202697,25.05576565,臺北市大同區赤峰街４９巷２１號,大同區,赤峰街
桂林內科診所,121.515453,25.05160296,臺北市大同區太原路６２號,大同區,太原路
保全診所,121.5123615,25.05902252,臺北市大同區保安街６４號,大同區,保安街
陳重熙內科小兒科診所,121.513968,25.05935165,臺北市大同區保安街３之４號,大同區,保安街
余自興眼科診所,121.5139818,25.07024847,臺北市大同區重慶北路三段二一三號一樓,大同區,重慶北路
黃眼科診所,121.5135837,25.07139926,臺北市大同區重慶北路三段２５６號２樓,大同區,重慶北路
大龍峒耳鼻喉科診所,121.5128326,25.06877266,臺北市大同區民族西路223之5號,大同區,民族西路
包眼科診所,121.5126736,25.05906106,臺北市大同區保安街５４之１號,大同區,保安街
朱世輝耳鼻喉科診所,121.517319,25.06272173,臺北市大同區民權西路１０６號2樓,大同區,民權西路
周承良耳鼻喉科診所,121.5118878,25.05053444,臺北市大同區延平北路一段二十二號,大同區,延平北路
張漢權內科診所,121.5139262,25.05265428,臺北市大同區重慶北路一段９２號,大同區,重慶北路
聖心婦產科診所,121.5145593,25.05941163,臺北市大同區保安街一之一號,大同區,保安街
澤民診所,121.5142823,25.07194357,臺北市大同區酒泉街104號,大同區,酒泉街
中華民國防癆協會第一胸腔病防治所,121.51752,25.06270491,臺北市大同區民權西路一○四號二樓,大同區,民權西路
周皮膚科診所,121.511881,25.05062325,臺北市大同區延平北路一段二十六號,大同區,延平北路
延平耳鼻喉科診所,121.5137377,25.06226271,臺北市大同區重慶北路二段二三五之四號一樓,大同區,重慶北路
台北聖仁皮膚科診所,121.5187699,25.05316751,臺北市大同區南京西路71號二樓,大同區,南京西路
黃隆慶婦產科診所,121.5131454,25.05827692,臺北市大同區歸綏街181號2樓之1,大同區,歸綏街
廣安診所,121.5161289,25.06894713,臺北市大同區大龍街１７７巷３號,大同區,大龍街
林昭安診所,121.5125131,25.0591818,臺北市大同區保安街３５號,大同區,保安街
羅志弘診所,121.5139313,25.06748717,臺北市大同區重慶北路三段１１５號,大同區,重慶北路
夏立雲診所,121.5123314,25.0591614,臺北市大同區保安街４３號,大同區,保安街
趙黎海診所,121.515205,25.07307041,臺北市大同區哈密街六十七號,大同區,哈密街
建成診所,121.5191825,25.050303,臺北市大同區長安西路82號,大同區,長安西路
廣博診所,121.5147014,25.05116684,臺北市大同區長安西路二二O巷五號,大同區,長安西路
伊甸診所,121.5171487,25.05204859,臺北市大同區承德路一段66號8樓,大同區,承德路
林仲皮膚科診所,121.5116401,25.0543401,臺北市大同區延平北路2段20號,大同區,延平北路
和泰內科診所,121.5098505,25.05320318,臺北市大同區南京西路406號8樓,大同區,南京西路
羅源彰診所,121.5177947,25.05062176,臺北市大同區長安西路137號,大同區,長安西路
光庭耳鼻喉科診所,121.5154738,25.06871961,臺北市大同區民族西路167號,大同區,民族西路
梅約內科診所,121.5190291,25.05034096,臺北市大同區長安西路88號1、2、3樓,大同區,長安西路
慶吉診所,121.5139786,25.07017054,臺北市大同區重慶北路三段209號,大同區,重慶北路
澤康診所,121.5139096,25.06634774,臺北市大同區重慶北路三段71號,大同區,重慶北路
建順診所,121.5128537,25.05967673,臺北市大同區甘州街51號,大同區,甘州街
梅約診所,121.5190291,25.05034096,臺北市大同區長安西路88號1、2、3樓,大同區,長安西路
夏凱納生活診所,121.5175358,25.05662646,臺北市大同區五原路15號、19號2樓,大同區,五原路
正和復健科診所,121.511535,25.05594386,臺北市大同區延平北路二段80號、82號,大同區,延平北路
宜康復健科診所,121.5166062,25.06844764,臺北市大同區民族西路124號、124之1號及126號,大同區,民族西路
南西司鉑診所,121.5198536,25.05261058,臺北市大同區南京西路30號10樓之1,大同區,南京西路
永欣診所,121.5200416,25.05061133,臺北市大同區南京西路30號3樓之3,大同區,南京西路
南西維格皮膚科診所,121.5201042,25.05110858,臺北市大同區南京西路22號3樓之1、3樓之2,大同區,南京西路
祥恩耳鼻喉科診所,121.5167145,25.05728171,臺北市大同區民生西路195號,大同區,民生西路
華康診所,121.5098505,25.05320318,臺北市大同區南京西路406號9樓,大同區,南京西路
祐雙診所,121.5188847,25.05731117,臺北市大同區民生西路138號2樓,大同區,民生西路
永茂醫美診所,121.5199933,25.05257766,臺北市大同區南京西路22號8樓,大同區,南京西路
寧夏診所,121.5144161,25.05689217,臺北市大同區民生西路236號,大同區,民生西路
龍安莊耳鼻喉科診所,121.5159669,25.07080964,臺北市大同區大龍街227號,大同區,大龍街
大同耳鼻喉科診所,121.5135665,25.07100518,臺北市大同區重慶北路三段250之3、250之4號,大同區,重慶北路
紘成診所,121.5149035,25.05250234,臺北市大同區長安西路35號2樓,大同區,長安西路
志勛皮膚科診所,121.5140713,25.05476583,臺北市大同區重慶北路二段2、4號(實際營業地址:1、2及3樓),大同區,重慶北路
京站好萊塢診所,121.5158753,25.049098,臺北市大同區鄭州路3號(實際營業地址 :1層、2層、3層),大同區,鄭州路
夢工場整形醫美診所,121.5167532,25.05068197,臺北市大同區承德路一段32號5樓,大同區,承德路
朵薇診所,121.5139886,25.05391002,臺北市大同區南京西路288號3樓之5、3樓之6,大同區,南京西路
英士牙醫診所,121.5163175,25.05470306,臺北市大同區太原路１５４－１１號,大同區,太原路
文山堂牙醫診所,121.5123368,25.05441588,臺北市大同區南京西路１８５巷５－２號,大同區,南京西路
吳震鵬牙醫診所,121.5159919,25.06898464,臺北市大同區大龍街１８３號,大同區,大龍街
杜瑞煙牙醫診所,121.5137408,25.0599197,臺北市大同區重慶北路二段１８３－１號三樓,大同區,重慶北路
宏偉牙醫診所,121.5113614,25.06210333,臺北市大同區延平北路二段２４３號２樓,大同區,延平北路
瑞和牙醫診所,121.5136929,25.05157252,臺北市大同區長安西路２４６號２樓,大同區,長安西路
南方牙醫診所,121.5150247,25.05690371,臺北市大同區民生西路２１０號２樓,大同區,民生西路
溫崇凱中醫診所,121.5336591,25.05183813,臺北市中山區南京東路二段132號6樓,中山區,南京東路
長榮中醫診所,121.5303819,25.06129168,臺北市中山區吉林路245號1、2樓,中山區,吉林路
延安中醫診所,121.5209498,25.04989248,臺北市中山區長安西路18號,中山區,長安西路
鼎昌中醫診所,121.5430739,25.05167724,臺北市中山區南京東路3段200號3樓之2,中山區,南京東路
品君中醫診所,121.5322557,25.06122456,臺北市中山區松江路330巷15號,中山區,松江路
傳愛經典中醫診所,121.5405171,25.04858998,臺北市中山區龍江路29號(實際營業地址在1樓),中山區,龍江路
澄觀中醫診所,121.5301696,25.05069741,臺北市中山區吉林路23號1.2樓,中山區,吉林路
居仁堂中醫診所,121.5319458,25.05266155,臺北市中山區松江路124巷11號,中山區,松江路
杜李威中醫診所,121.5319379,25.05300691,臺北市中山區松江路132巷9號,中山區,松江路
王倩梅中醫診所,121.5438052,25.05120885,臺北市中山區復興北路86號7樓之1,中山區,復興北路
詠生中醫診所,121.5587024,25.07968702,臺北市中山區樂群二路196號,中山區,樂群二路
全真堂中醫診所,121.5238675,25.06811746,臺北市中山區中山北路三段55巷7號(實際營業地址一層),中山區,中山北路
益曼中醫診所,121.5316168,25.05345516,臺北市中山區一江街31之1號,中山區,一江街
東仁中醫診所,121.5355195,25.06037905,臺北市中山區錦州街275號(實際營業地址:1樓及地下一層),中山區,錦州街
漢研中醫診所,121.5425268,25.0562017,臺北市中山區興安街63號2樓之10,中山區,興安街
林佳瑩中醫診所,121.5218138,25.05253504,臺北市中山區南京西路1之1號3樓,中山區,南京西路
祺祥中醫診所,121.5327202,25.04681232,臺北市中山區松江路20-1號1樓,中山區,松江路
得原中醫診所,121.5345605,25.06039126,臺北市中山區錦州街259號,中山區,錦州街
璞心中醫診所,121.5408555,25.06075955,臺北市中山區龍江路297號,中山區,龍江路
台灣九芝堂中醫診所,121.5294555,25.05111256,臺北市中山區吉林路22巷7號,中山區,吉林路
大直北安中醫診所,121.5484748,25.08130291,臺北市中山區北安路575號,中山區,北安路
學德堂中醫診所,121.533523,25.0509353,臺北市中山區松江路97巷2之1號,中山區,松江路
雲門中醫診所,121.5321821,25.05593045,臺北市中山區松江路170巷12號,中山區,松江路
林國榮中醫診所,121.531332,25.05784182,臺北市中山區民生東路二段112號,中山區,民生東路
宏品中醫診所,121.5207453,25.0485799,臺北市中山區中山北路一段64號,中山區,中山北路
昌盛堂中醫診所,121.5333795,25.06000605,臺北市中山區松江路275之1號2樓、277號2樓,中山區,松江路
祥瑞堂中醫診所,121.5209612,25.06120907,臺北市中山區天祥路24號,中山區,天祥路
興安養生堂中醫診所,121.5413224,25.05620672,臺北市中山區興安街 51之6號,中山區,興安街
力慈科學中醫診所,121.5294898,25.05497817,臺北市中山區長春路105號,中山區,長春路
新昇中醫診所,121.5337843,25.05286647,臺北市中山區松江路123巷6之2號(實際使用樓層1、2樓),中山區,松江路
天益中醫診所,121.5385812,25.06018354,臺北市中山區錦州街332號,中山區,錦州街
正元中醫診所,121.5254793,25.06132089,臺北市中山區林森北路482號、484號,中山區,林森北路
京華中醫診所,121.5332121,25.05091423,臺北市中山區松江路95之1號,中山區,松江路
吉林中醫診所,121.5302841,25.06609901,臺北市中山區吉林路428號,中山區,吉林路
科學中醫診所,121.531581,25.06233842,臺北市中山區民權東路二段86號(實際營業樓層：1樓),中山區,民權東路
南京京都堂中醫診所,121.5261879,25.05190997,臺北市中山區南京東路一段100號、100號2樓,中山區,南京東路
馥林中醫診所,121.5209983,25.04906311,臺北市中山區中山北路一段82號6樓,中山區,中山北路
芸安堂中醫診所,121.5323058,25.06271389,臺北市中山區民權東路二段95號,中山區,民權東路
晶點牙醫診所,121.5237969,25.05390682,臺北市中山區中山北路二段39巷10號2樓、2樓之1,中山區,中山北路
長安牙醫診所,121.5429519,25.04837751,臺北市中山區長安東路二段189之4號、189號2樓之4,中山區,長安東路
陽光牙醫診所,121.5349169,25.05182952,臺北市中山區南京東路二段174號7樓,中山區,南京東路
真幸福牙醫診所,121.5205556,25.06068716,臺北市中山區民權西路70巷47號,中山區,民權西路
瀛海牙醫診所,121.534711,25.05382245,臺北市中山區伊通街104號2樓,中山區,伊通街
泰宏牙醫診所,121.5400528,25.06563591,臺北市中山區龍江路342巷17號,中山區,龍江路
哲全牙醫診所,121.5296425,25.05187229,臺北市中山區南京東路二段50號2樓,中山區,南京東路
辰品牙醫診所,121.548823,25.08266705,臺北市中山區北安路615號,中山區,北安路
勤美悠植牙醫診所,121.5361815,25.05262839,臺北市中山區建國北路二段6巷3號,中山區,建國北路
六福牙醫診所,121.5413935,25.05343615,臺北市中山區遼寧街128巷13號,中山區,遼寧街
迪昇牙醫診所,121.5476228,25.08198143,臺北市中山區北安路595巷20弄3號,中山區,北安路
花栗鼠牙醫診所,121.5437976,25.05089955,臺北市中山區復興北路78號2樓,中山區,復興北路
康卓牙醫診所,121.5430409,25.04982606,臺北市中山區朱崙街56號,中山區,朱崙街
松江博萊恩牙醫診所,121.5349456,25.06098187,臺北市中山區民權東路二段152巷16號,中山區,民權東路
上博牙醫診所,121.5427021,25.05622054,臺北市中山區興安街67號,中山區,興安街
聖偉牙醫診所,121.5320928,25.06271906,臺北市中山區民權東路2段85號(實際營業地址：1、2樓),中山區,民權東路
禮凡牙醫診所,121.5361742,25.0596155,臺北市中山區建國北路二段186巷1號、188號,中山區,建國北路
頤康美學牙醫診所,121.5238873,25.05821007,臺北市中山區民生東路一段13號2樓,中山區,民生東路
星晴牙醫診所,121.5410353,25.06461004,臺北市中山區龍江路373號,中山區,龍江路
旭恩牙醫診所,121.5230986,25.05850733,臺北市中山區中山北路二段81之3號(實際開業樓層：1、2、3樓),中山區,中山北路
承錡馬楷牙醫診所,121.5264017,25.0550233,臺北市中山區長春路65號2樓,中山區,長春路
維成牙醫診所,121.5557401,25.08038364,臺北市中山區樂群二路113號,中山區,樂群二路
東昇牙醫診所,121.5310077,25.0578443,臺北市中山區民生東路二段98號、100號,中山區,民生東路
長木牙醫診所,121.5580686,25.08014618,臺北市中山區樂群二路185號,中山區,樂群二路
穆樂牙醫診所,121.5532,25.08222062,臺北市中山區敬業二路69巷61號,中山區,敬業二路
穆樂貳牙醫診所,121.5532,25.08222062,臺北市中山區敬業二路69巷61號2樓,中山區,敬業二路
小星星牙醫診所,121.5528347,25.08247533,臺北市中山區樂群三路56號7樓,中山區,樂群三路
義美牙醫診所,121.5230527,25.05728556,臺北市中山區中山北路二段71號4樓,中山區,中山北路
爵世牙醫診所,121.5227405,25.06317179,臺北市中山區中山北路二段179號(實際開業樓層:一層及二層),中山區,中山北路
植仕美數位美學牙醫診所,121.5432459,25.05166957,臺北市中山區南京東路三段208號6樓,中山區,南京東路
尊榮優植牙醫診所,121.5432459,25.05166957,臺北市中山區南京東路三段208號2樓,中山區,南京東路
三代生物能牙醫診所,121.5313318,25.05474244,臺北市中山區長春路142之1號(實際營業:一層、 二層),中山區,長春路
九之牙醫診所,121.5405278,25.05749522,臺北市中山區龍江路202號,中山區,龍江路
慕光牙醫診所,121.5309703,25.05226096,臺北市中山區南京東路二段75號（實際營業樓層：第一層、第二層),中山區,南京東路
煥顏牙醫診所,121.5283397,25.05444554,臺北市中山區新生北路二段33巷9號,中山區,新生北路
信德中醫診所,121.5422308,25.04854123,臺北市中山區遼寧街３５號,中山區,遼寧街
德全中醫診所,121.5306653,25.06042766,臺北市中山區錦州街１７１號,中山區,錦州街
高國良中醫診所,121.5204511,25.06091728,臺北市中山區民權西路７０巷４３弄１號,中山區,民權西路
元生中醫診所,121.5418915,25.05502923,臺北市中山區龍江路179巷40號,中山區,龍江路
丁美玲中醫診所,121.5343682,25.05148475,臺北市中山區伊通街52巷３號１樓,中山區,伊通街
高麝芬中醫診所,121.5279345,25.04799778,臺北市中山區長安東路一段五十二巷四號,中山區,長安東路
立生中醫診所,121.5323009,25.0485706,臺北市中山區長安東路二段４９號３樓,中山區,長安東路
朝暉中醫診所,121.5408906,25.05989583,臺北市中山區龍江路二八一巷一號二樓,中山區,龍江路
福田中醫診所,121.5439298,25.06006995,臺北市中山區復興北路３５０號2樓之１,中山區,復興北路
恩濟堂中醫診所,121.5414784,25.06606868,臺北市中山區復興北路５１４巷６３號,中山區,復興北路
林源泉中醫診所,121.5342985,25.06478099,臺北市中山區農安街２３５號,中山區,農安街
漢明中醫診所,121.5387493,25.06017996,臺北市中山區錦州街３３６號,中山區,錦州街
滋和堂中醫診所,121.52938,25.04891221,臺北市中山區新生北路一段５９之１號,中山區,新生北路
鐳力中醫診所,121.525143,25.06289946,臺北市中山區民權東路一段63號5樓,中山區,民權東路
龍江中醫診所,121.5412366,25.06299238,臺北市中山區龍江路331巷3號,中山區,龍江路
慎德堂中醫診所,121.5437941,25.05075559,臺北市中山區復興北路70號4樓之1,中山區,復興北路
龍心堂中醫診所,121.5430466,25.06254581,臺北市中山區民權東路三段53號,中山區,民權東路
京元中醫診所,121.5329763,25.06326116,臺北市中山區松江路378號1樓?380號2樓,中山區,松江路
常生中醫診所,121.5319793,25.04857483,臺北市中山區長安東路二段47號1、2樓,中山區,長安東路
元氣堂中醫診所,121.5303707,25.06071142,臺北市中山區吉林路223號,中山區,吉林路
有聲中醫診所,121.5287964,25.05841699,臺北市中山區中原街50號,中山區,中原街
駿琳大直中醫診所,121.5476864,25.08094799,臺北市中山區北安路598之1號、608巷2弄9號2樓,中山區,北安路
仁心堂中醫診所,121.5412743,25.05475878,臺北市中山區長春路267號1樓,中山區,長春路
文化中醫診所,121.5195857,25.06347223,臺北市中山區撫順街37號,中山區,撫順街
新生中醫診所,121.5432236,25.05619408,臺北市中山區興安街91號,中山區,興安街
漢坤中醫診所,121.5460979,25.0787685,臺北市中山區北安路458巷41弄40號,中山區,北安路
景欣中醫診所,121.5322549,25.052246,臺北市中山區南京東路二段95號2樓,中山區,南京東路
禾儒中醫診所,121.5227069,25.05988264,臺北市中山區中山北路2段98號〈實際開業樓層：2、3樓〉,中山區,中山北路
緻美堂中醫診所,121.5439767,25.06039879,臺北市中山區復興北路356號4樓,中山區,復興北路
翠真牙醫診所,121.5223268,25.05771911,臺北市中山區民生西路6號4樓之1,中山區,民生西路
志安牙醫診所,121.5490914,25.08206763,臺北市中山區北安路６０８巷１號,中山區,北安路
仁光牙醫診所,121.5233895,25.05850252,臺北市中山區民生東路一段１０號２樓,中山區,民生東路
智欽牙醫診所,121.5492352,25.0817165,臺北市中山區北安路６０８巷４弄１１號,中山區,北安路
福聯牙醫診所,121.5414733,25.06590731,臺北市中山區復興北路５１４巷６０號１樓,中山區,復興北路
禾森牙醫診所,121.5509814,25.07834104,臺北市中山區明水路475巷15號,中山區,明水路
２１世紀牙醫診所,121.5235343,25.05714717,臺北市中山區中山北路二段六十五巷九之一號,中山區,中山北路
祺甯牙醫診所,121.5323009,25.0485706,臺北市中山區長安東路二段４９號１樓,中山區,長安東路
北安牙醫診所,121.5499062,25.08291855,臺北市中山區北安路630巷11號1、2樓,中山區,北安路
立馨牙醫診所,121.5282475,25.04842142,臺北市中山區長安東路一段七十九號,中山區,長安東路
北大牙醫診所,121.5310668,25.06470744,臺北市中山區農安街116號一樓,中山區,農安街
睿智牙醫診所,121.5477074,25.08303626,臺北市中山區北安路六二一巷二十五號,中山區,北安路
品傑牙醫診所,121.5304589,25.0547465,臺北市中山區長春路一二四號一樓,中山區,長春路
復北惠普牙醫診所,121.5439656,25.06062063,臺北市中山區復興北路三六八號二樓,中山區,復興北路
杏華牙醫診所,121.5208132,25.05630474,臺北市中山區中山北路二段五十巷四十五號,中山區,中山北路
上允牙醫診所,121.5483787,25.08106219,臺北市中山區北安路五七一號,中山區,北安路
常春藤牙醫診所,121.5415754,25.05452205,臺北市中山區長春路348之5號,中山區,長春路
景福牙醫診所,121.543313,25.04753517,臺北市中山區八德路二段３３３號,中山區,八德路
協合牙醫診所,121.5547508,25.08608554,臺北市中山區北安路八０五巷四弄一號一樓,中山區,北安路
任惠民牙醫診所,121.5303905,25.061552,臺北市中山區吉林路二五一號二樓,中山區,吉林路
極品牙醫診所,121.5350836,25.04995261,臺北市中山區伊通街二十七號一樓,中山區,伊通街
佳醫牙醫診所,121.5299368,25.05072954,臺北市中山區吉林路18號2樓,中山區,吉林路
印象牙醫診所,121.5321945,25.06232009,臺北市中山區民權東路二段一０八號,中山區,民權東路
遠見牙醫診所,121.540234,25.05373777,臺北市中山區龍江路一二四巷二號,中山區,龍江路
玩美數位牙醫診所,121.5256178,25.05191756,臺北市中山區南京東路一段86號3樓,中山區,南京東路
華城牙醫診所,121.5243402,25.06356034,臺北市中山區雙城街8號,中山區,雙城街
大千牙醫診所,121.5413764,25.048406,臺北市中山區長安東路二段169-12號3樓之2,中山區,長安東路
德惠牙醫診所,121.5266577,25.06673624,臺北市中山區德惠街33號,中山區,德惠街
明新牙醫診所,121.5406253,25.0543853,臺北市中山區龍江路161號,中山區,龍江路
龍江牙醫診所,121.540307,25.05173923,臺北市中山區南京東路三段118號2樓,中山區,南京東路
嚴牙醫診所,121.5457507,25.08163328,臺北市中山區大直街34巷14號,中山區,大直街
弘丞牙醫診所,121.5432236,25.05619408,臺北市中山區興安街91號2樓之6、2樓之7及興安街101號,中山區,興安街
迪士尼數位美學牙醫診所,121.5505304,25.07963769,臺北市中山區北安路554巷8弄1號,中山區,北安路
陽順牙醫診所,121.5337149,25.06048878,臺北市中山區松江路287之3號,中山區,松江路
鴻生牙醫診所,121.5431903,25.05445905,臺北市中山區長春路378號5樓,中山區,長春路
悅世牙醫診所,121.5505443,25.0801016,臺北市中山區明水路581巷25號,中山區,明水路
晶華牙醫診所,121.532665,25.05781579,臺北市中山區民生東路二段160號、160號2樓,中山區,民生東路
恆美牙醫診所,121.5237768,25.05485818,臺北市中山區長春路20號10樓,中山區,長春路
恩慈牙醫診所,121.5493985,25.08286531,臺北市中山區北安路630巷5號,中山區,北安路
品誠牙醫診所,121.542143,25.05236163,臺北市中山區遼寧街145號,中山區,遼寧街
安美牙醫診所,121.5507705,25.0832178,臺北市中山區明水路653號,中山區,明水路
春風牙醫診所,121.5231473,25.05960099,臺北市中山區中山北路二段99號9樓、9樓之2,中山區,中山北路
京鼎牙醫診所,121.5490758,25.08256048,臺北市中山區北安路620號1、2樓,中山區,北安路
景正牙醫診所,121.5405197,25.04864027,臺北市中山區龍江路31號1樓、4樓之1,中山區,龍江路
如意牙醫診所,121.5436523,25.04530914,臺北市中山區復興南路一段42號3樓,中山區,復興南路
英皇牙醫診所,121.5236781,25.06255234,臺北市中山區民權東路1段24號及24號2、3樓,中山區,民權東路
光與綠牙醫診所,121.5439596,25.0596409,臺北市中山區復興北路340號,中山區,復興北路
北歐牙醫診所,121.5224459,25.0540909,臺北市中山區中山北路2段28之1號2樓,中山區,中山北路
天籟牙醫診所,121.5211506,25.06074427,臺北市中山區天祥路5號及7號,中山區,天祥路
悠植牙醫診所,121.5384911,25.0548206,臺北市中山區長春路213號及213號2樓,中山區,長春路
品澄牙醫診所,121.5439653,25.06168516,臺北市中山區復興北路400號2樓,中山區,復興北路
簡雅緻牙醫診所,121.5210982,25.05265231,臺北市中山區南京西路11號2樓,中山區,南京西路
晶緻牙醫診所,121.5417856,25.0482015,臺北市中山區長安東路2段202號,中山區,長安東路
博康牙醫診所,121.5407983,25.05563183,臺北市中山區龍江路185號,中山區,龍江路
和美牙醫診所,121.5383172,25.05419899,臺北市中山區南京東路3段89巷27弄15號,中山區,南京東路
王品牙醫診所,121.5398607,25.06016753,臺北市中山區錦州街360號,中山區,錦州街
爵美牙醫診所,121.5405953,25.05852977,臺北市中山區龍江路238號,中山區,龍江路
晴美牙醫診所,121.5439298,25.06006995,臺北市中山區復興北路350號2樓,中山區,復興北路
魔法牙醫診所,121.5373699,25.05218683,臺北市中山區南京東路三段9號3樓,中山區,南京東路
風尚雅緻牙醫診所,121.543809,25.05136284,臺北市中山區復興北路92號2樓之1、2樓之2,中山區,復興北路
永潔牙醫診所,121.5294155,25.05152372,臺北市中山區吉林路26巷17號,中山區,吉林路
幸恩牙醫診所,121.5346604,25.05072549,臺北市中山區伊通街28號,中山區,伊通街
欣安牙醫診所,121.5209446,25.0608771,臺北市中山區天祥路12號,中山區,天祥路
不二牙醫診所,121.5229545,25.05202909,臺北市中山區南京東路一段2號3樓之1,中山區,南京東路
康福牙醫診所,121.5270069,25.05124074,臺北市中山區南京東路一段１３２巷１０號,中山區,南京東路
陳均牙醫診所,121.5232029,25.05107298,臺北市中山區天津街六十二號三樓,中山區,天津街
新現代牙醫診所,121.5238431,25.05198606,臺北市中山區南京東路一段３４號３Ｆ,中山區,南京東路
林錦榮牙醫診所,121.5231473,25.05960099,臺北市中山區中山北路二段99號3樓,中山區,中山北路
吉安牙醫診所,121.5281565,25.05131756,臺北市中山區新生北路一段８７號,中山區,新生北路
上格牙醫診所,121.5235897,25.05485838,臺北市中山區長春路八十九號之四   一樓,中山區,長春路
傅牙醫診所,121.5423746,25.0473039,臺北市中山區八德路二段二九七號,中山區,八德路
普大牙醫診所,121.537948,25.05178381,臺北市中山區南京東路3段195、197號2樓,中山區,南京東路
柏齡牙科診所,121.5406311,25.05934363,臺北市中山區龍江路２５０號,中山區,龍江路
呈祥牙醫診所,121.5289785,25.06651428,臺北市中山區德惠街９６號,中山區,德惠街
大富牙醫診所,121.5421697,25.06027793,臺北市中山區錦州街４２１號,中山區,錦州街
陽安牙醫診所,121.5347875,25.06189742,臺北市中山區民權東路二段152巷3號,中山區,民權東路
照安牙醫診所,121.520478,25.04971684,臺北市中山區中山北路一段９６巷２５號,中山區,中山北路
大華牙醫診所,121.5350763,25.0485228,臺北市中山區長安東路二段１０１號２樓,中山區,長安東路
榮星牙科診所,121.5309365,25.05828756,臺北市中山區民生東路二段９３巷４號,中山區,民生東路
張永恭牙醫診所,121.5212623,25.04960463,臺北市中山區中山北路一段１０４號1Ｆ,中山區,中山北路
中英牙醫診所,121.5310015,25.05495083,臺北市中山區長春路１３３之１號,中山區,長春路
健生牙醫診所,121.5402833,25.04712844,臺北市中山區龍江路二之四號,中山區,龍江路
三和牙醫診所,121.5307167,25.05359421,臺北市中山區四平街１６號,中山區,四平街
泰祺牙醫診所,121.5208003,25.06242042,臺北市中山區天祥路７０號３Ｆ,中山區,天祥路
峰茂牙醫診所,121.5364353,25.05346802,臺北市中山區建國北路二段３６號,中山區,建國北路
祐德牙醫診所,121.5413585,25.0562058,臺北市中山區興安街五十一之七號,中山區,興安街
岡大牙醫診所,121.5293906,25.05226877,臺北市中山區南京東路二段四十三號二樓,中山區,南京東路
大台北牙醫診所,121.5379872,25.05228884,臺北市中山區南京東路三段29號1樓,中山區,南京東路
佳佳牙醫診所,121.5408271,25.05960664,臺北市中山區龍江路２７５號,中山區,龍江路
欣林牙醫診所,121.5262592,25.05482107,臺北市中山區長春路６２號２Ｆ,中山區,長春路
嘉新牙醫診所,121.5315381,25.05784249,臺北市中山區民生東路二段１２０號,中山區,民生東路
中二牙醫診所,121.522435,25.05755976,臺北市中山區中山北路二段84巷1號3樓,中山區,中山北路
上恩牙醫診所,121.543657,25.05447575,臺北市中山區長春路四○八號三樓,中山區,長春路
標準牙醫診所,121.5287356,25.0528701,臺北市中山區南京東路二段２１巷２０號,中山區,南京東路
大衛牙醫診所,121.5249884,25.05105113,臺北市中山區林森北路112號3樓,中山區,林森北路
民安牙醫診所,121.5256158,25.05168178,臺北市中山區林森北路一五九巷十號一樓,中山區,林森北路
全美牙醫診所,121.5261941,25.06674563,臺北市中山區德惠街１７號,中山區,德惠街
百年牙醫診所,121.5408913,25.0662555,臺北市中山區龍江路364號,中山區,龍江路
美儀牙醫診所,121.5408336,25.06498161,臺北市中山區龍江路３２４號２Ｆ,中山區,龍江路
永固牙醫診所,121.5248878,25.05580293,臺北市中山區中山北路二段５９巷５６號,中山區,中山北路
惠潔牙醫診所,121.5214243,25.06261431,臺北市中山區民權西路34號4樓,中山區,民權西路
曾賢德牙醫診所,121.5267425,25.0649849,臺北市中山區農安街４９號二Ｆ,中山區,農安街
威世牙醫診所,121.5437895,25.05058753,臺北市中山區復興北路６６號,中山區,復興北路
雙城牙醫診所,121.5236842,25.06537776,臺北市中山區雙城街18巷8號,中山區,雙城街
日進牙醫診所,121.5304589,25.0547465,臺北市中山區長春路124號2樓,中山區,長春路
久大牙醫診所,121.52874,25.067457,臺北市中山區新生北路三段８７巷１７號１Ｆ,中山區,新生北路
慶泰牙醫診所,121.5350624,25.06024199,臺北市中山區錦州街２７８號,中山區,錦州街
承新牙醫診所,121.5304344,25.06360502,臺北市中山區吉林路317號,中山區,吉林路
松安牙醫診所,121.5344665,25.05872914,臺北市中山區松江路２３５巷３２號１Ｆ,中山區,松江路
佳慶牙醫診所,121.531715,25.04837586,臺北市中山區長安東路二段40之1號2樓,中山區,長安東路
瑞祥牙醫診所,121.5291453,25.06458453,臺北市中山區中原街１５１號,中山區,中原街
東海牙醫診所,121.5346414,25.06456845,臺北市中山區農安街１７４號１樓,中山區,農安街
天心牙醫診所,121.5247765,25.05755655,臺北市中山區中山北路二段７７巷３９號,中山區,中山北路
田青牙醫診所,121.5489675,25.08345776,臺北市中山區北安路六二九號一樓,中山區,北安路
豐正牙醫診所,121.5334865,25.06045803,臺北市中山區松江路２８９之８０2號,中山區,松江路
喜信牙醫診所,121.5387394,25.05980737,臺北市中山區合江街一四四巷八號,中山區,合江街
勢喬牙醫診所,121.5303943,25.05149183,臺北市中山區松江路一0八巷二十九號二樓,中山區,松江路
吉林牙醫診所,121.5301307,25.06006081,臺北市中山區吉林路２５４號之２號２樓,中山區,吉林路
明水牙醫診所,121.5505043,25.07799507,臺北市中山區明水路三九七巷七弄六二號一樓,中山區,明水路
惠普牙醫診所,121.5434184,25.06011565,臺北市中山區錦州街４５０號,中山區,錦州街
重九牙醫診所,121.5352047,25.05952162,臺北市中山區建國北路二段１８６巷２０號１樓,中山區,建國北路
品維牙醫診所,121.523176,25.05591618,臺北市中山區中山北路二段５９巷１號２樓,中山區,中山北路
偉格牙醫診所,121.5490571,25.08381737,臺北市中山區北安路６３9號,中山區,北安路
亞太牙醫診所,121.5420413,25.04785354,臺北市中山區遼寧街２４號,中山區,遼寧街
靜心牙醫診所,121.5335125,25.048345,臺北市中山區長安東路二段６４號２樓,中山區,長安東路
高標準牙醫診所,121.5493072,25.08141488,臺北市中山區北安路６０８巷４弄６號１號,中山區,北安路
常青牙醫診所,121.5221443,25.054553,臺北市中山區中山北路二段４２巷６號３樓,中山區,中山北路
張文乾牙醫診所,121.520702,25.04849405,臺北市中山區中山北路一段５８號３樓,中山區,中山北路
玉山診所,121.5341938,25.06039343,臺北市中山區錦州街251號(實際營業:二層),中山區,錦州街
巴黎國際長春診所,121.5433367,25.06211218,臺北市中山區民權東路3段78號(實際營業地址:一層、二層),中山區,民權東路
極緻醫美診所,121.5313575,25.05185462,臺北市中山區南京東路二段96號5樓,中山區,南京東路
洛桑醫學診所,121.553259,25.0832629,臺北市中山區敬業一路128巷28號4樓,中山區,敬業一路
送子鳥11診所,121.5581866,25.08014333,臺北市中山區樂群二路187號、189號、189號2樓、189號2樓之1,中山區,樂群二路
南西好萊塢診所,121.5237037,25.05199227,臺北市中山區南京東路一段24號3樓,中山區,南京東路
由麗美型診所,121.5358255,25.06022258,臺北市中山區錦州街296號,中山區,錦州街
明錦醫美時尚診所,121.5241624,25.05390128,臺北市中山區中山北路二段39巷18號(實際營業地址:1樓、2樓),中山區,中山北路
生基婦產科診所,121.5352797,25.04831725,臺北市中山區長安東路二段108號2樓、2樓之1、2樓之2、2樓之3、2樓之4,中山區,長安東路
南西光澤診所,121.5237037,25.05199227,臺北市中山區南京東路一段24號7樓,中山區,南京東路
君綺整形外科診所,121.5333824,25.05223189,臺北市中山區南京東路二段111號2樓,中山區,南京東路
杰膚美診所,121.5437654,25.04973958,臺北市中山區復興北路50號2樓,中山區,復興北路
醫髮診所,121.543663,25.04577066,臺北市中山區復興南路一段36之9號9樓,中山區,復興南路
新英格蘭診所,121.5330076,25.06365537,臺北市中山區松江路396號,中山區,松江路
丹朵醫學診所,121.5234819,25.05526864,臺北市中山區長春路3巷13、15號,中山區,長春路
MyHair生髮植鬍診所,121.5329505,25.05980936,臺北市中山區松江路276號7樓,中山區,松江路
美朵醫美診所,121.5228326,25.0533272,臺北市中山區中山北路二段31號5樓,中山區,中山北路
佑昇診所,121.5343978,25.0483277,臺北市中山區長安東路二段88號8樓,中山區,長安東路
樂群診所,121.5593333,25.07951739,臺北市中山區樂群二路210之2號,中山區,樂群二路
又喜明眼科診所,121.548634,25.0808473,臺北市中山區北安路572號(實際營業樓層1樓、2樓),中山區,北安路
澤林毛髮診所,121.5338842,25.04833563,臺北市中山區長安東路二段78號6樓,中山區,長安東路
達康診所,121.539522,25.06191709,臺北市中山區龍江路298巷21號,中山區,龍江路
越診所,121.529286,25.05243083,臺北市中山區南京東路二段41巷2號(實際營業地址：1、2樓)、6號(實際營業地址：1、2樓)、8號(實際營業地址：1、2樓)、8之1號(實際營業地址：1、2樓),中山區,南京東路
晨曦生活診所,121.5333096,25.05426615,臺北市中山區松江路131之3號,中山區,松江路
魏嘉宏皮膚科診所,121.5430857,25.06215371,臺北市中山區民權東路三段72號(實際營業:一層、二層),中山區,民權東路
美麗晶華診所,121.5230977,25.05846126,臺北市中山區中山北路二段81之2號(實際營業樓層:一層、二層、三層),中山區,中山北路
力安醫學診所,121.5603193,25.0801215,臺北市中山區樂群二路267號4樓,中山區,樂群二路
葛萊美診所,121.5290421,25.05188431,臺北市中山區南京東路二段26號2樓、3樓、4樓,中山區,南京東路
南京愛爾麗診所,121.5318639,25.05185676,臺北市中山區南京東路二段100號2樓,中山區,南京東路
孕醫診所,121.5328876,25.06067159,臺北市中山區松江路318號2樓,中山區,松江路
虎林診所,121.5227505,25.0610225,臺北市中山區中山北路二段118號8樓,中山區,中山北路
明錦生髮植髮診所,121.5301899,25.0517639,臺北市中山區南京東路二段62號7樓,中山區,南京東路
媞爾絲醫美診所,121.5318486,25.0547255,臺北市中山區長春路152號(實際營業樓層：一層、二層),中山區,長春路
中山元晨診所,121.5227039,25.05197968,臺北市中山區中山北路一段145號(實際營業地址:7樓),中山區,中山北路
李宜霖診所,121.561177,25.0812457,臺北市中山區植福路296號、298號、308號3樓之5,中山區,植福路
中美診所,121.5433406,25.05167087,臺北市中山區南京東路三段210號6樓,中山區,南京東路
台北日本診所,121.5249276,25.05193791,臺北市中山區南京東路一段60號4樓、62號4樓,中山區,南京東路
璞緻時尚診所,121.5437528,25.04925524,臺北市中山區復興北路38號6樓,中山區,復興北路
民生展欣眼科診所,121.5437501,25.05753387,臺北市中山區民生東路三段92號,中山區,民生東路
康來爾健康診所,121.5520483,25.08298885,臺北市中山區敬業一路99號,中山區,敬業一路
麗星診所,121.5375238,25.06044917,臺北市中山區建國北路二段135號7樓,中山區,建國北路
艾肯診所,121.5581866,25.08014334,臺北市中山區樂群二路187號2樓,中山區,樂群二路
進安身心診所,121.5486642,25.08202459,臺北市中山區北安路593號、593號地下,中山區,北安路
富琳診所,121.5438601,25.05347197,臺北市中山區復興北路164號5樓,中山區,復興北路
艾佳醫美診所,121.5235046,25.05786734,臺北市中山區民生東路一段14號(實際營業地址:2樓),中山區,民生東路
名瑿醫美診所,121.5329505,25.05980936,臺北市中山區松江路276號3樓,中山區,松江路
全人健康診所,121.5220679,25.06586964,臺北市中山區中山北路三段38號2樓,中山區,中山北路
喜安診所,121.5304029,25.04703079,臺北市中山區新生北路一段66號3、4樓,中山區,新生北路
煥顏整形外科診所,121.5283397,25.05444554,臺北市中山區新生北路二段33巷9號,中山區,新生北路
歐嘉得牙醫診所,121.5252064,25.0579493,臺北市中山區民生東路1段58號3樓,中山區,民生東路
簡富堅牙醫診所,121.5216876,25.05992199,臺北市中山區中山北路二段九十六巷二十七號之一,中山區,中山北路
承正牙醫診所,121.5233,25.05745179,臺北市中山區中山北路二段七十七巷二號三樓,中山區,中山北路
蔡朝雄牙醫診所,121.5254504,25.06013736,臺北市中山區林森北路４３２號２樓之２,中山區,林森北路
鑫牙醫診所,121.5428444,25.05582793,臺北市中山區興安街100號１Ｆ,中山區,興安街
華齡牙醫診所,121.5363936,25.06608879,臺北市中山區建國北路三段１０１號２Ｆ,中山區,建國北路
隆昌牙醫診所,121.5287962,25.05836483,臺北市中山區中原街４８號２Ｆ,中山區,中原街
健康牙醫診所,121.5301098,25.05927799,臺北市中山區吉林路232號(實際開業樓層為1樓及2樓),中山區,吉林路
群嚮牙醫診所,121.5358389,25.05888092,臺北市中山區建國北路二段116巷5號,中山區,建國北路
信心牙醫診所,121.5430934,25.0625454,臺北市中山區民權東路三段55號,中山區,民權東路
崧江牙醫診所,121.5387428,25.06032097,臺北市中山區錦州街三二七號,中山區,錦州街
莊建全牙醫診所,121.5385523,25.06523212,臺北市中山區龍江路３２８巷４１號,中山區,龍江路
黃大偉牙醫診所,121.52373,25.06484899,臺北市中山區農安街12號2樓,中山區,農安街
大明牙醫診所,121.5243192,25.06323781,臺北市中山區雙城街２之４號,中山區,雙城街
康寧牙醫診所,121.5301151,25.04806808,臺北市中山區新生北路一段五十一號五樓,中山區,新生北路
吳佩臻診所,121.5223036,25.06321255,臺北市中山區中山北路二段162號4樓及4樓之1,中山區,中山北路
慶生診所,121.5257767,25.06453813,臺北市中山區林森北路561號2樓之7及之8,中山區,林森北路
曼都整形外科診所,121.5307966,25.05186378,臺北市中山區南京東路2段76號7樓,中山區,南京東路
施宏男復健科診所,121.5328624,25.05497794,臺北市中山區松江路158號3樓、3樓之1,中山區,松江路
長安內外科診所,121.5412609,25.04703193,臺北市中山區八德路二段259號,中山區,八德路
康心美婦診所,121.5244107,25.06485334,臺北市中山區農安街14號2樓、雙城街17之4號2樓,中山區,農安街
哲民診所,121.5398848,25.06591661,臺北市中山區龍江路356巷24號,中山區,龍江路
生技明生診所,121.5208258,25.04873946,臺北市中山區中山北路一段72號2樓、2樓之1、2樓之2,中山區,中山北路
群英楊麗珍黃景昱皮膚科診所,121.5239917,25.05197944,臺北市中山區南京東路一段36號3樓,中山區,南京東路
美無極美學診所,121.5553739,25.08038215,臺北市中山區樂群二路103號、105號,中山區,樂群二路
達特琳醫美診所,121.5423184,25.05209136,臺北市中山區南京東路三段195號3樓,中山區,南京東路
吳寬輝診所,121.5207068,25.05435931,臺北市中山區中山北路2段36巷37號,中山區,中山北路
耘康復健科診所,121.5435366,25.06166504,臺北市中山區復興北路402巷8弄2號,中山區,復興北路
元林診所,121.5303803,25.06108394,臺北市中山區吉林路239號3樓、239號3樓之1,中山區,吉林路
晴光診所,121.5255376,25.06433095,臺北市中山區林森北路556號,中山區,林森北路
喜悅健康診所,121.5403642,25.05440365,臺北市中山區龍江路152號地下一層、152號地下一層之2,中山區,龍江路
安康復健科診所,121.5327524,25.04868136,臺北市中山區松江路54號2樓,中山區,松江路
聖和骨外科診所,121.5320821,25.06471233,臺北市中山區農安街138之1號、140號,中山區,農安街
禾康診所,121.5254823,25.0614079,臺北市中山區林森北路486號,中山區,林森北路
陳博光教授診所,121.5301926,25.04864712,臺北市中山區長安東路二段1號1樓、2樓,中山區,長安東路
雙連婦產科小兒科診所,121.5216361,25.05763827,臺北市中山區民生西路30號4樓,中山區,民生西路
榮星診所,121.5406378,25.06060824,臺北市中山區龍江路272號 (實際營業地址:1樓、地下一層)及274號 (實際營業地址:1樓)  ,中山區,龍江路
好美醫美診所,121.5213741,25.05260434,臺北市中山區南京西路5之1號6樓,中山區,南京西路
晶華美醫診所,121.5232439,25.05390517,臺北市中山區中山北路二段39巷2之2號2、3、4樓,中山區,中山北路
惟?診所,121.5485283,25.08219568,臺北市中山區北安路595巷1號地下一層,中山區,北安路
優視眼科診所,121.5241438,25.05789291,臺北市中山區民生東路一段30號2樓,中山區,民生東路
大直佳恩診所,121.5486435,25.08194407,臺北市中山區北安路591號,中山區,北安路
上質整形外科診所,121.5537914,25.0850504,臺北市中山區北安路780號6樓之1,中山區,北安路
依定美時尚診所,121.540265,25.0528799,臺北市中山區龍江路106巷1號、108號、108號2樓及108號2樓之1,中山區,龍江路
秀仁整形外科診所,121.525124,25.05819682,臺北市中山區民生東路一段29號9樓之1,中山區,民生東路
黃建榮婦產科診所,121.5318639,25.05185676,臺北市中山區南京東路二段100號11樓、11樓之1、11樓之2、11樓之3、11樓之4及11樓之5,中山區,南京東路
美麗好診所,121.5242833,25.05196418,臺北市中山區南京東路一段42號3樓,中山區,南京東路
法緹美學時尚診所,121.5250504,25.05042821,臺北市中山區林森北路109號(實際營業地址：3樓),中山區,林森北路
希望美醫診所,121.5217053,25.05224085,臺北市中山區南京西路8號8樓,中山區,南京西路
周昱青診所,121.5223036,25.06321255,臺北市中山區中山北路二段162號4樓及4樓之1,中山區,中山北路
彥靚診所,121.5331919,25.04968493,臺北市中山區松江路75之1號3樓,中山區,松江路
東方八千代診所,121.5218138,25.05253504,臺北市中山區南京西路1之1號8樓,中山區,南京西路
四季和安婦幼診所,121.5253996,25.05070454,臺北市中山區林森北路452號地下1樓、458號及458號3樓、460號及460號2樓、錦州街23巷3號3樓,中山區,林森北路
凱薾診所,121.5358403,25.05136115,臺北市中山區南京東路二段214巷8之1號、8號2樓,中山區,南京東路
法漾診所,121.5324416,25.0478836,臺北市中山區松江路46巷6號,中山區,松江路
心禾診所,121.543809,25.05136284,臺北市中山區復興北路92號11樓之1,中山區,復興北路
大直佳醫美人診所,121.5589626,25.08303259,臺北市中山區樂群三路287號,中山區,樂群三路
創興診所,121.5438801,25.06086248,臺北市中山區復興北路378號地下二樓,中山區,復興北路
長春禾麗診所,121.5432911,25.05445731,臺北市中山區長春路380號3樓之1,中山區,長春路
景?復健科診所,121.5488719,25.08297596,臺北市中山區北安路607號、607之1號、595巷1號地下一層,中山區,北安路
千代田診所,121.5220846,25.05247137,臺北市中山區南京西路1號6樓之7之8、7樓之11之12,中山區,南京西路
固?診所,121.5488719,25.08297596,臺北市中山區北安路613號、595巷1號地下一層,中山區,北安路
瑞醫時尚醫美診所,121.5438601,25.05347197,臺北市中山區復興北路164號3樓之1,中山區,復興北路
鈺璽診所,121.5336591,25.05183813,臺北市中山區南京東路二段132號4樓,中山區,南京東路
粹究美學診所,121.5301899,25.0517639,臺北市中山區南京東路二段62號10樓,中山區,南京東路
上直診所,121.5464584,25.07940104,臺北市中山區北安路458巷41弄49號,中山區,北安路
馨美診所,121.5230609,25.05758269,臺北市中山區中山北路二段77之1號2樓,中山區,中山北路
育仁診所,121.5355504,25.06022846,臺北市中山區錦州街286號,中山區,錦州街
元和雅整形外科診所,121.5332566,25.05302376,臺北市中山區松江路125號2樓及125號2樓之1,中山區,松江路
高地植髮家診所,121.5389659,25.05215522,臺北市中山區南京東路三段91號2樓,中山區,南京東路
好日子診所,121.5234985,25.06377867,臺北市中山區中山北路二段183巷3之3號,中山區,中山北路
詹益偉耳鼻喉科診所,121.5487899,25.08253091,臺北市中山區北安路611號,中山區,北安路
尚安診所,121.5439298,25.06006995,臺北市中山區復興北路350號3樓,中山區,復興北路
振芝心身醫學診所,121.5439312,25.05878498,臺北市中山區復興北路282號2樓,中山區,復興北路
麗安耳鼻喉科診所,121.5408454,25.06052813,臺北市中山區龍江路289號,中山區,龍江路
禾宇復健科診所,121.5377908,25.06611046,臺北市中山區龍江路356巷79號,中山區,龍江路
中山璀璨診所,121.5216979,25.05254372,臺北市中山區南京西路1之2號5樓,中山區,南京西路
永暉診所,121.5256017,25.06644338,臺北市中山區林森北路612號3樓,中山區,林森北路
柏安診所,121.5343978,25.0483277,臺北市中山區長安東路二段88號10樓及90號10樓,中山區,長安東路
大直診所,121.5483291,25.082041,臺北市中山區北安路595巷2弄2號(實際營業地址:1樓及地下層)、6號,中山區,北安路
正恩耳鼻喉科診所,121.538508,25.06032598,臺北市中山區錦州街321號,中山區,錦州街
龍江小兒科診所,121.5407174,25.05531319,臺北市中山區龍江路１８１－１號１樓,中山區,龍江路
晉宏診所,121.5416467,25.06590631,臺北市中山區復興北路５１４巷５６號１樓,中山區,復興北路
大直復健科診所,121.5499096,25.08360274,臺北市中山區北安路630巷25弄16號,中山區,北安路
寧康聯合診所,121.5409858,25.05646679,臺北市中山區龍江路209巷6之1號,中山區,龍江路
新人內科診所,121.5407996,25.0555858,臺北市中山區龍江路一八五之一號一樓,中山區,龍江路
宏林診所,121.5223268,25.05771911,臺北市中山區民生西路6號、6號2樓、6號2樓之1,中山區,民生西路
吳振力診所,121.542831,25.05471783,臺北市中山區長春路三０九號,中山區,長春路
慶恩小兒科診所,121.5302988,25.05673873,臺北市中山區吉林路一一七號,中山區,吉林路
康喬諾貝爾診所,121.5427736,25.04838079,臺北市中山區長安東路二段189號2樓之２,中山區,長安東路
?新診所,121.5366009,25.06439264,臺北市中山區建國北路三段42號5樓、6樓,中山區,建國北路
肌優谷診所,121.5436817,25.04630376,臺北市中山區復興南路一段三十四號二樓,中山區,復興南路
鄭紹隆整形外科診所,121.5237037,25.05199227,臺北市中山區南京東路一段二十四號五樓,中山區,南京東路
民生承安診所,121.5435022,25.05746248,臺北市中山區民生東路3段90號1、2樓,中山區,民生東路
萌髮診所,121.5377742,25.05218117,臺北市中山區南京東路三段21號8樓,中山區,南京東路
李久恆整形外科診所,121.5229545,25.05202909,臺北市中山區南京東路一段2號6樓,中山區,南京東路
雅得麗生活診所,121.5228356,25.05338229,臺北市中山區中山北路二段33號3樓,中山區,中山北路
青山診所,121.5254504,25.06013736,臺北市中山區林森北路432號2樓之3,中山區,林森北路
春泉診所,121.5243167,25.05819973,臺北市中山區民生東路一段25號2樓,中山區,民生東路
宇康復健科診所,121.5427179,25.05447029,臺北市中山區長春路368號2樓,中山區,長春路
明誠診所,121.5431725,25.06009973,臺北市中山區錦州街446號,中山區,錦州街
欣藝整形外科診所,121.5437805,25.05029622,臺北市中山區復興北路60號2樓之2,中山區,復興北路
微風整形外科診所,121.5436431,25.04510734,臺北市中山區復興南路一段52號,中山區,復興南路
至誠整形外科診所,121.5351737,25.05296316,臺北市中山區伊通街87巷3號,中山區,伊通街
澄心診所,121.5226195,25.05744701,臺北市中山區中山北路二段82號2樓,中山區,中山北路
台兒診所,121.5223036,25.06321255,臺北市中山區中山北路二段162號9樓及9樓之1,中山區,中山北路
高固?診所,121.5488719,25.08297596,臺北市中山區北安路613號、595巷1號地下一層,中山區,北安路
宏仁診所,121.5307576,25.04859556,臺北市中山區長安東路二段17號,中山區,長安東路
明水時尚診所,121.5482543,25.08083926,臺北市中山區北安路569之1號,中山區,北安路
莊宇龍診所,121.5490299,25.08370825,臺北市中山區北安路637號,中山區,北安路
創健診所,121.5438801,25.06086249,臺北市中山區復興北路378號地下一層,中山區,復興北路
長春耳鼻喉科診所,121.5312961,25.05784481,臺北市中山區民生東路二段110號,中山區,民生東路
漾麗診所,121.5255376,25.06433095,臺北市中山區林森北路556號2樓,中山區,林森北路
魅力必緹診所,121.523064,25.06827988,臺北市中山區中山北路三段57號2樓,中山區,中山北路
英爵醫美診所,121.5561586,25.079678,臺北市中山區敬業三路153號及155號,中山區,敬業三路
綺麗嘉美型診所,121.5329741,25.0613485,臺北市中山區松江路338號(實際營業樓層:2、3樓),中山區,松江路
旭恩復健科診所,121.5437528,25.04925524,臺北市中山區復興北路38號2樓,中山區,復興北路
楊菘宇整形外科診所,121.5223693,25.05258349,臺北市中山區中山北路二段2號5樓,中山區,中山北路
愛鄰診所,121.5461001,25.079699,臺北市中山區北安路520之1號,中山區,北安路
佳禾骨科診所,121.5210861,25.05757269,臺北市中山區民生西路54號3樓,中山區,民生西路
思雲診所,121.5239061,25.06166154,臺北市中山區中山北路二段137巷10號、地下室,中山區,中山北路
怡仁診所,121.5209983,25.04906311,臺北市中山區中山北路1段82號5樓,中山區,中山北路
四季花妍整形診所,121.5236688,25.05485955,臺北市中山區長春路16號5樓,中山區,長春路
星光整形外科診所,121.5273384,25.0518815,臺北市中山區南京東路一段138號3樓,中山區,南京東路
黃偉俐診所,121.5229899,25.04978003,臺北市中山區天津街37號2樓,中山區,天津街
黃雅芬兒童心智診所,121.5213741,25.05260434,臺北市中山區南京西路5之1號12樓之1,中山區,南京西路
中山民權王耳鼻喉科診所,121.5222725,25.06332017,臺北市中山區中山北路二段166號之2,中山區,中山北路
信安診所,121.521906,25.05766735,臺北市中山區民生西路24號3樓,中山區,民生西路
興安診所,121.5435022,25.05746248,臺北市中山區民生東路3段90號2樓、9 0號2樓之3,中山區,民生東路
恆麗美型診所,121.5333774,25.05989566,臺北市中山區松江路273號3樓,中山區,松江路
聚英視光眼科診所,121.5379207,25.06214388,臺北市中山區民權東路3段54、56號及56號4樓之1,中山區,民權東路
農安診所,121.5285785,25.06476375,臺北市中山區農安街62號,中山區,農安街
博美名人外科診所,121.5228023,25.06485977,臺北市中山區農安街2之2號、2之1號2樓之1,中山區,農安街
瀚仕診所,121.5335023,25.0648688,臺北市中山區松江路369號2樓,中山區,松江路
嬌妮美診所,121.5198495,25.06265781,臺北市中山區民權西路70號10樓,中山區,民權西路
京硯皮膚科診所,121.5374956,25.0546258,臺北市中山區長春路210號、212號、212之1號、212之2號,中山區,長春路
京硯整形外科診所,121.5374956,25.0546258,臺北市中山區長春路210號、212號、212之1號、212之2號,中山區,長春路
杏慈診所,121.5349841,25.06189677,臺北市中山區民權東路二段152巷2之1號,中山區,民權東路
大倉美學診所,121.5233272,25.05201467,臺北市中山區南京東路一段16號7樓之5、7樓之6,中山區,南京東路
德惠全方位診所,121.52464,25.06679863,臺北市中山區德惠街9號4樓之9、之10,中山區,德惠街
微煦心靈診所,121.5233785,25.0539241,臺北市中山區中山北路二段39巷6號2樓之1,中山區,中山北路
晶緻美學診所,121.5218138,25.05253504,臺北市中山區南京西路1之1號4樓,中山區,南京西路
林丹薇診所,121.5223036,25.06321255,臺北市中山區中山北路二段162號4樓及4樓之1,中山區,中山北路
國防部醫務組診所,121.5430116,25.07978133,臺北市中山區北安路409號,中山區,北安路
國防部醫務組牙醫診所,121.5430116,25.07978133,臺北市中山區北安路409號,中山區,北安路
生泉婦產科診所,121.5241438,25.05789291,臺北市中山區民生東路一段30號3、4、5樓,中山區,民生東路
振隆眼科診所,121.5229545,25.05202909,臺北市中山區南京東路一段２號３Ｆ－３,中山區,南京東路
中崙聯合診所,121.5425337,25.04734361,臺北市中山區八德路二段303號1樓、305號1樓及2樓、307號1樓及2樓,中山區,八德路
陳?輝診所,121.5312804,25.05810734,臺北市中山區民生東路二段１０３號,中山區,民生東路
曾婦產科診所,121.5306466,25.04859748,臺北市中山區長安東路二段11之1號〈實際營業場所在一樓〉,中山區,長安東路
陳家庭醫學科診所,121.5310463,25.06344125,臺北市中山區吉林路３１５巷１８號,中山區,吉林路
蕭繁雄婦產科診所,121.5227085,25.05992011,臺北市中山區中山北路二段１００號,中山區,中山北路
黃中豪婦產科診所,121.5303186,25.05773648,臺北市中山區吉林路１３１號２Ｆ,中山區,吉林路
高添富婦產科診所,121.525143,25.06289946,臺北市中山區民權東路一段６3號7樓之1,中山區,民權東路
賴國良婦產科診所,121.5223246,25.0603928,臺北市中山區錦西街１之５號,中山區,錦西街
李堯?內兒科診所,121.5291256,25.06279469,臺北市中山區民權東路二段２３號,中山區,民權東路
趙素芳婦產科診所,121.541065,25.04821175,臺北市中山區長安東路二段一七八之六號二樓,中山區,長安東路
木生婦幼診所,121.5344365,25.04832709,臺北市中山區長安東路二段90號1-4樓、88號4樓,中山區,長安東路
富生婦產科診所,121.5303444,25.05876664,臺北市中山區吉林路１５７號,中山區,吉林路
葉小兒科診所,121.53883,25.05480705,臺北市中山區長春路２２７號,中山區,長春路
柏泉內科小兒科診所,121.5476508,25.08186659,臺北市中山區北安路５９５巷２０弄５號,中山區,北安路
歐婦產科診所,121.5304937,25.05785104,臺北市中山區民生東路二段８０號,中山區,民生東路
陳眼科診所,121.5229638,25.05593921,臺北市中山區中山北路二段５９之１號２樓,中山區,中山北路
楊光榮嗓音耳鼻喉科診所,121.5308635,25.0623612,臺北市中山區民權東路二段56號(實際開業地址：1樓及2樓),中山區,民權東路
王三郎婦產科診所,121.5222725,25.06332017,臺北市中山區中山北路二段166號之2,中山區,中山北路
吳輝明婦產科診所,121.5266704,25.05481569,臺北市中山區長春路７８號２Ｆ,中山區,長春路
李義男婦產科診所,121.5230527,25.05728556,臺北市中山區中山北路二段７１號４樓,中山區,中山北路
輝雄診所,121.5301596,25.06141985,臺北市中山區吉林路300號1、2、3、4樓302號 1、2、3、4樓,中山區,吉林路
林錦祥耳鼻喉科診所,121.5412147,25.06444554,臺北市中山區五常街９１號１樓,中山區,五常街
周賢章耳鼻喉科診所,121.5209617,25.06125144,臺北市中山區天祥路２６號,中山區,天祥路
楊錦標神經科診所,121.521906,25.05766735,臺北市中山區民生西路24號5樓,中山區,民生西路
北安聯合診所,121.5482793,25.08087746,臺北市中山區北安路569之2號 569之3號  569之4號 569之1號二 樓 569之2號二 樓 569之3號二 樓 569之4號二 樓  ,中山區,北安路
邱內科診所,121.5222048,25.05214407,臺北市中山區南京西路２號2 .３樓,中山區,南京西路
陳世澤內科診所,121.5406675,25.0610055,臺北市中山區龍江路２８４－１號,中山區,龍江路
宗北內科診所,121.521906,25.05766735,臺北市中山區民生西路24號2樓,中山區,民生西路
世珍婦產診所,121.5426752,25.04983209,臺北市中山區朱崙街四十六號,中山區,朱崙街
中山實美整形外科診所,121.5225612,25.06021902,臺北市中山區中山北路二段１０６之２號４樓,中山區,中山北路
東方整形外科診所,121.521829,25.05078418,臺北市中山區中山北路一段１２２號２樓,中山區,中山北路
仁佑診所,121.5196442,25.0630519,臺北市中山區民權西路79號2樓之1、2樓之2、2樓之5、2樓之6、2樓之7、2樓之8、3樓之1,中山區,民權西路
德美診所,121.5488632,25.08168595,臺北市中山區北安路五九六號一樓,中山區,北安路
英政耳鼻喉科診所,121.5411098,25.04841377,臺北市中山區長安東路二段１６９之9號,中山區,長安東路
蔡仁雨皮膚科診所,121.540307,25.05173923,臺北市中山區南京東路三段１１８號３樓,中山區,南京東路
蘇宋儒婦產科診所,121.5491079,25.08268692,臺北市中山區北安路６２４號２樓,中山區,北安路
瑞光眼科診所,121.524242,25.05235687,臺北市中山區南京東路一段25號、25號2樓,中山區,南京東路
鄭志誠小兒科診所,121.5233951,25.05785573,臺北市中山區民生東路一段八號,中山區,民生東路
黃大倫婦產科診所,121.5362614,25.04850641,臺北市中山區長安東路二段一三一之三號一樓二樓,中山區,長安東路
潘外科內科診所,121.5314265,25.05495525,臺北市中山區長春路135之1號2樓,中山區,長春路
王俊民皮膚科診所,121.5333538,25.05357645,臺北市中山區松江路一二七之一號三樓,中山區,松江路
蔡國賢耳鼻喉科診所,121.5353653,25.04831599,臺北市中山區長安東路二段108之2號,中山區,長安東路
全安診所,121.52096,25.06111677,臺北市中山區天祥路20號,中山區,天祥路
登彩整形外科診所,121.5222066,25.05676638,臺北市中山區中山北路二段62巷5號1、3樓,中山區,中山北路
光華家醫科診所,121.5331437,25.04672669,臺北市中山區松江路21號,中山區,松江路
信義婦產科診所,121.5231473,25.05960099,臺北市中山區中山北路二段99號6樓之2,中山區,中山北路
花漾整形外科診所,121.5290913,25.06279426,臺北市中山區民權東路2段21號3樓,中山區,民權東路
劉雲祥診所,121.5406294,25.05923881,臺北市中山區龍江路２４６號,中山區,龍江路
晏安診所,121.5427736,25.04838079,臺北市中山區長安東路二段１８９號之６,中山區,長安東路
劉宣彥診所,121.534876,25.04888205,臺北市中山區伊通街十七之四號,中山區,伊通街
池明仁整形外科診所,121.5238873,25.05821007,臺北市中山區民生東路一段13號5樓,中山區,民生東路
芯慈耳鼻喉科診所,121.5425371,25.05447368,臺北市中山區長春路364號,中山區,長春路
陳正熹耳鼻喉科診所,121.5232722,25.06410378,臺北市中山區雙城街１０巷１８號１樓,中山區,雙城街
如田診所,121.5317489,25.05783038,臺北市中山區民生東路二段一二八號一樓,中山區,民生東路
賴達三診所,121.530544,25.05785087,臺北市中山區民生東路二段８２號,中山區,民生東路
鼎廬診所,121.5248695,25.06178471,臺北市中山區中山北路二段１３７巷３７號１樓,中山區,中山北路
蔡瓊瑤眼科診所,121.5411334,25.05938135,臺北市中山區龍江路２７１巷６號,中山區,龍江路
長春眼科聯合診所,121.5364625,25.05442639,臺北市中山區建國北路二段６６號,中山區,建國北路
德容聯合診所,121.5303595,25.05987487,臺北市中山區吉林路197號、197號2樓,中山區,吉林路
王宗前診所,121.5301209,25.05969108,臺北市中山區吉林路２５０號,中山區,吉林路
法藍瓷美學牙醫診所,121.5645633,25.05953567,臺北市松山區民生東路五段167之3號,松山區,民生東路
誼欣牙醫診所,121.5596803,25.05643068,臺北市松山區延壽街338號,松山區,延壽街
兆恩牙醫診所,121.5461329,25.05598956,臺北市松山區興安街218號,松山區,興安街
柏林牙醫診所,121.5451303,25.05340668,臺北市松山區慶城街21之2號2樓 ,松山區,慶城街
直德牙醫診所,121.5449093,25.05163192,臺北市松山區南京東路三段260號2樓,松山區,南京東路
八德牙醫診所,121.5764195,25.04987163,臺北市松山區八德路四段678號,松山區,八德路
瑞宏中醫診所,121.5759826,25.05047448,臺北市松山區八德路四段６７３巷１０號,松山區,八德路
尊生堂中醫診所,121.5713204,25.05088702,臺北市松山區塔悠路47號,松山區,塔悠路
顏長春中醫診所,121.5452944,25.05443019,臺北市松山區長春路４４６號,松山區,長春路
振誠中醫診所,121.5657708,25.06344928,臺北市松山區撫遠街３６８號,松山區,撫遠街
國晉中醫診所,121.5564427,25.04741154,臺北市松山區光復南路６巷４６號,松山區,光復南路
華泰中醫診所,121.5660431,25.06234243,臺北市松山區新東街６６巷１８號,松山區,新東街
桂堂中醫診所,121.5662296,25.0520494,臺北市松山區南京東路五段２９１巷９號１樓,松山區,南京東路
理想中醫診所,121.5597867,25.05130166,臺北市松山區南京東路五段46號2樓,松山區,南京東路
延吉中醫診所,121.5536117,25.04666568,臺北市松山區延吉街11號5樓之5,松山區,延吉街
維哲中醫診所,121.5543215,25.0514292,臺北市松山區南京東路四段102號4樓,松山區,南京東路
永昌漢方中醫診所,121.5617786,25.05216321,臺北市松山區南京東路5段123巷2弄25號,松山區,南京東路
見安中醫診所,121.5694958,25.05004903,臺北市松山區基隆路一段３２號１、２樓,松山區,基隆路
仁和堂中醫診所,121.563763,25.04890691,臺北市松山區八德路四段２０１號１樓,松山區,八德路
仲佑中醫診所,121.5567622,25.04797621,臺北市松山區八德路三段２12號１樓,松山區,八德路
育晟中醫診所,121.5532958,25.0454421,臺北市松山區延吉街46巷4號１樓,松山區,延吉街
和豐中醫診所,121.5645812,25.05235266,臺北市松山區南京東路五段251巷24弄19號1樓,松山區,南京東路
德昌中醫診所,121.5535291,25.04586375,臺北市松山區延吉街38號,松山區,延吉街
楠桐中醫診所,121.5606094,25.04835485,臺北市松山區八德路四段94號,松山區,八德路
益茂中醫診所,121.5500771,25.04626697,臺北市松山區八德路三段12巷52弄10號,松山區,八德路
百漢中醫診所,121.5649157,25.05118972,臺北市松山區南京東路五段206號1樓,松山區,南京東路
伍德中醫診所,121.5628222,25.05431355,臺北市松山區健康路231號,松山區,健康路
弘祐中醫診所,121.5499624,25.04753355,臺北市松山區八德路三段12巷4弄15號,松山區,八德路
正一中醫診所,121.5534268,25.04687063,臺北市松山區延吉街18號1樓,松山區,延吉街
宜陞中醫診所,121.5444209,25.0598046,臺北市松山區復興北路333號4樓之3、之4,松山區,復興北路
祐瑞中醫診所,121.5453589,25.06034018,臺北市松山區復興北路361巷8號,松山區,復興北路
聖唐中醫診所,121.5673135,25.05708574,臺北市松山區延壽街48號,松山區,延壽街
新富錦中醫診所,121.566462,25.05925312,臺北市松山區民生東路5段203號,松山區,民生東路
博康中醫診所,121.5670869,25.05113538,臺北市松山區南京東路五段280號,松山區,南京東路
皇脈中醫診所,121.5644278,25.05041702,臺北市松山區八德路四段245巷29號,松山區,八德路
東青中醫診所,121.5678901,25.05934731,臺北市松山區民生東路五段245號、245之1號,松山區,民生東路
青花瓷養生中醫診所,121.5631514,25.0516557,臺北市松山區南京東路五段169號,松山區,南京東路
慈和中醫診所,121.5627931,25.04975829,臺北市松山區八德路四段245巷32弄65號,松山區,八德路
欣悅中醫診所,121.5567861,25.05176229,臺北市松山區南京東路四段193號,松山區,南京東路
漢浤堂健康中醫診所,121.5549902,25.05811249,臺北市松山區民生東路四段128號,松山區,民生東路
渼生堂中醫診所,121.5545615,25.04800941,臺北市松山區八德路三段138號(實際使用：1、2樓),松山區,八德路
震絡針中醫診所,121.5606936,25.0512778,臺北市松山區南京東路五段64號4樓,松山區,南京東路
茶米中醫診所,121.5645418,25.05159671,臺北市松山區南京東路五段225號3樓,松山區,南京東路
民生漢唐中醫診所,121.5638664,25.05592691,臺北市松山區三民路74巷1之1號,松山區,三民路
民昇中醫診所,121.5593636,25.05878159,臺北市松山區民生東路五段87號,松山區,民生東路
長庚醫療財團法人長庚診所,121.5463569,25.05641776,臺北市松山區民生東路三段130巷9號2、3、4樓,松山區,民生東路
宏昌牙醫診所,121.5537711,25.04522218,臺北市松山區延吉街４９號,松山區,延吉街
饒河牙醫診所,121.5720793,25.05035006,臺北市松山區塔悠路１３號,松山區,塔悠路
黃系倫牙醫診所,121.546305,25.05885115,臺北市松山區復興北路３１３巷３０號２樓,松山區,復興北路
敦品牙醫診所,121.5482141,25.05909506,臺北市松山區敦化北路２２２巷１０號,松山區,敦化北路
冠亞牙醫診所,121.5565464,25.04818688,臺北市松山區八德路三段207號1樓,松山區,八德路
樂福牙醫診所,121.5617933,25.05110003,臺北市松山區南京東路五段100號、102號6樓之1,松山區,南京東路
德基牙醫診所,121.5527568,25.04831273,臺北市松山區八德路三段27號2樓,松山區,八德路
虹福牙醫診所,121.5462159,25.0453167,臺北市松山區市民大道四段５３號,松山區,市民大道
長島牙醫診所,121.5598893,25.05841959,臺北市松山區民生東路五段９０號１樓,松山區,民生東路
華美牙醫診所,121.5543215,25.0514292,臺北市松山區南京東路4段102號3樓,松山區,南京東路
泛美牙醫診所,121.5569732,25.05296808,臺北市松山區光復北路１４１號１樓,松山區,光復北路
群益牙醫診所,121.5572241,25.05225956,臺北市松山區光復北路１２３號１樓,松山區,光復北路
新東牙醫診所,121.5653948,25.05823739,臺北市松山區新東街11巷15--1號１樓,松山區,新東街
碧礽牙醫診所,121.5577342,25.05026578,臺北市松山區光復北路８２號７樓,松山區,光復北路
藍明賢牙醫診所,121.5485269,25.05913745,臺北市松山區敦化北路２２２巷１之１號１樓,松山區,敦化北路
臻品牙醫診所,121.5610682,25.05857131,臺北市松山區民生東路五段１２０號３樓之４,松山區,民生東路
富錦牙醫診所,121.5651908,25.06120591,臺北市松山區富錦街527號1樓,松山區,富錦街
遠景牙醫診所,121.5661187,25.05698475,臺北市松山區延壽街６４號１樓,松山區,延壽街
李美玲牙醫診所,121.546256,25.05878573,臺北市松山區民生東路三段１１３巷１１號２樓,松山區,民生東路
張萬屏牙醫診所,121.5609386,25.05339725,臺北市松山區南京東路五段１２３巷８弄２號之４,松山區,南京東路
大都會牙醫診所,121.5537735,25.04806252,臺北市松山區八德路三段110號,松山區,八德路
康健牙醫診所,121.5637589,25.05699203,臺北市松山區延壽街１４３號,松山區,延壽街
康霖牙醫診所,121.5561522,25.05619351,臺北市松山區延壽街４３０號,松山區,延壽街
東方牙醫診所,121.567562,25.05904083,臺北市松山區民生東路五段二六八號一樓,松山區,民生東路
多倫多牙醫診所,121.5537678,25.0453557,臺北市松山區延吉街45號,松山區,延吉街
誠美牙醫診所,121.5628991,25.05845457,臺北市松山區民生東路五段１６０號１樓,松山區,民生東路
南加州牙醫診所,121.5492684,25.04536818,臺北市松山區敦化南路一段69號2樓、67號2樓,松山區,敦化南路
紀泓輝牙醫診所,121.5531816,25.05794049,臺北市松山區民生東路四段８４－１號,松山區,民生東路
杏典牙醫診所,121.5600116,25.05877131,臺北市松山區民生東路5段103號２樓,松山區,民生東路
泰康牙醫診所,121.5606936,25.0512778,臺北市松山區南京東路五段６４號３樓,松山區,南京東路
華中牙醫診所,121.5549437,25.05181411,臺北市松山區南京東路四段１１７號,松山區,南京東路
馨牙醫診所,121.5476499,25.05436445,臺北市松山區長春路506號,松山區,長春路
傑美牙醫診所,121.555521,25.04793121,臺北市松山區八德路三段172號1樓,松山區,八德路
采鴻牙醫診所,121.5442932,25.05363681,臺北市松山區復興北路145號8樓,松山區,復興北路
微風牙醫診所,121.5440869,25.04541086,臺北市松山區復興南路1段51號2樓,松山區,復興南路
祥和牙醫診所,121.5592695,25.05178068,臺北市松山區南京東路5段61-2號1樓,松山區,南京東路
原點牙醫診所,121.5456347,25.0530868,臺北市松山區慶城街16巷1號,松山區,慶城街
久恆牙醫診所,121.5596102,25.05879863,臺北市松山區民生東路5段93號,松山區,民生東路
康和牙醫診所,121.5574133,25.04827889,臺北市松山區八德路3段241號1、2樓,松山區,八德路
博美牙醫診所,121.5602158,25.04795601,臺北市松山區八德路4段106巷2弄20號1樓,松山區,八德路
松展牙醫診所,121.5639741,25.05229384,臺北市松山區三民路8號,松山區,三民路
胡廣煜牙醫診所,121.5453283,25.0574647,臺北市松山區民生東路三段118號6樓之3,松山區,民生東路
品睿牙醫診所,121.5465855,25.05948486,臺北市松山區民生東路三段113巷25弄6號2樓,松山區,民生東路
大友牙醫診所,121.5659906,25.06257272,臺北市松山區撫遠街350號之1,松山區,撫遠街
崇皓牙醫診所,121.5556022,25.05501577,臺北市松山區光復北路202號,松山區,光復北路
采德牙醫診所,121.5619826,25.05124923,臺北市松山區南京東路五段106號2樓,松山區,南京東路
森之谷美學牙醫診所,121.5580912,25.05131989,臺北市松山區南京東路五段40、42號,松山區,南京東路
得意牙醫診所,121.5469086,25.06002859,臺北市松山區民權東路三段160巷22號2樓之2,松山區,民權東路
佳禾牙醫診所,121.5581614,25.04812159,臺北市松山區八德路四段6號,松山區,八德路
恩信牙醫診所,121.5642728,25.05120051,臺北市松山區南京東路五段200號6樓之4,松山區,南京東路
雅客牙醫診所,121.5575368,25.05175046,臺北市松山區南京東路五段3號4樓,松山區,南京東路
維一牙醫診所,121.5638946,25.05861296,臺北市松山區民生東路五段188號,松山區,民生東路
泰華牙醫診所,121.5576835,25.04940767,臺北市松山區光復北路38號,松山區,光復北路
澄品牙醫診所,121.5521049,25.05351369,臺北市松山區敦化北路145巷73號,松山區,敦化北路
誠楷牙醫診所,121.5492983,25.04691499,臺北市松山區敦化南路一段7號3樓,松山區,敦化南路
薏安牙醫診所,121.5569604,25.05175839,臺北市松山區南京東路四段197號2樓之2、2樓之3,松山區,南京東路
美學牙醫診所,121.5518284,25.05851295,臺北市松山區民生東路四段97巷1弄4號,松山區,民生東路
康河牙醫診所,121.553875,25.05183074,臺北市松山區南京東路四段77號2樓,松山區,南京東路
佳誠美學牙醫診所,121.5658034,25.050944,臺北市松山區南京東路五段232號,松山區,南京東路
魔法兔齒顎矯正牙醫診所,121.564964,25.05067793,臺北市松山區東興路2巷5號,松山區,東興路
新尊榮牙醫診所,121.5763285,25.04986965,臺北市松山區八德路四段674號,松山區,八德路
博飛迅牙醫診所,121.5761146,25.04986281,臺北市松山區八德路四段666號7樓之2,松山區,八德路
康士美牙醫診所,121.5442406,25.05104597,臺北市松山區復興北路73號2樓、2樓之1、2樓之2,松山區,復興北路
喜樂芽牙醫診所,121.5643746,25.05053579,臺北市松山區八德路四段245巷33號,松山區,八德路
原邑診所,121.568195,25.05514881,臺北市松山區健康路325巷6弄21號,松山區,健康路
妍棠美學診所,121.5513162,25.05368714,臺北市松山區敦化北路145巷49號,松山區,敦化北路
麗生時尚美學診所,121.5538469,25.05143722,臺北市松山區南京東路四段56號2樓,松山區,南京東路
傑尼斯時尚醫美整形外科診所,121.565682,25.0511759,臺北市松山區南京東路五段230號3樓之7、3樓之8,松山區,南京東路
長泰牙醫診所,121.5474652,25.05436855,臺北市松山區長春路５００號２樓,松山區,長春路
大統牙醫診所,121.5569981,25.04823398,臺北市松山區八德路三段２２５號２樓－４,松山區,八德路
政雄牙醫診所,121.5678251,25.05934077,臺北市松山區民生東路五段２４３號,松山區,民生東路
新中牙醫診所,121.5605727,25.05989386,臺北市松山區新中街１２之１號,松山區,新中街
哲伸牙醫診所,121.5542022,25.04666791,臺北市松山區八德路三段１０６巷５０號,松山區,八德路
明義牙醫診所,121.5444242,25.04836881,臺北市松山區長安東路二段２１５號５樓－２,松山區,長安東路
國峰牙醫診所,121.5657569,25.06351627,臺北市松山區撫遠街３７０號,松山區,撫遠街
正信牙醫診所,121.564136,25.05920035,臺北市松山區民生東路五段１６５號２樓－１,松山區,民生東路
新華南牙醫診所,121.5534654,25.04638642,臺北市松山區延吉街２６號,松山區,延吉街
李玉閣牙醫診所,121.5626372,25.05188323,臺北市松山區南京東路五段１６３－３號３樓,松山區,南京東路
宏慈牙醫診所,121.5580558,25.04697863,臺北市松山區光復南路21之4號,松山區,光復南路
正斌牙醫診所,121.5536419,25.05242677,臺北市松山區南京東路四段７５巷１８號,松山區,南京東路
偉德牙醫診所,121.5544332,25.05142765,臺北市松山區南京東路四段１０６號２樓,松山區,南京東路
惠民牙醫診所,121.5550078,25.04820204,臺北市松山區八德路三段１４７－２號,松山區,八德路
施牙醫診所,121.5631046,25.06070343,臺北市松山區三民路１４３號,松山區,三民路
光泰牙醫診所,121.5568492,25.0513692,臺北市松山區南京東路四段１７２號,松山區,南京東路
得揚牙醫診所,121.5639289,25.0602645,臺北市松山區三民路１３６巷４２號,松山區,三民路
吉聖牙醫診所,121.5582973,25.04840283,臺北市松山區八德路四段７號,松山區,八德路
竹君牙醫診所,121.5601941,25.05129133,臺北市松山區南京東路五段５４號２樓,松山區,南京東路
元榜牙醫診所,121.5533318,25.05795844,臺北市松山區民生東路四段８８號,松山區,民生東路
王樣牙醫診所,121.5451969,25.05009704,臺北市松山區敦化北路４巷３５號,松山區,敦化北路
周牙醫診所,121.5664295,25.05115089,臺北市松山區南京東路五段２５６號,松山區,南京東路
健本牙醫診所,121.5645059,25.04873382,臺北市松山區八德路四段２１０－２號,松山區,八德路
西松牙醫診所,121.5660741,25.05179109,臺北市松山區南京東路五段２９１巷４號,松山區,南京東路
一泰牙醫診所,121.5650881,25.06290779,臺北市松山區民權東路五段５０號,松山區,民權東路
怡德牙醫診所,121.565284,25.05158209,臺北市松山區南京東路五段２59號,松山區,南京東路
丘牙醫診所,121.565505,25.0589007,臺北市松山區民生東路五段２２２號,松山區,民生東路
固榮牙醫診所,121.5534146,25.04695953,臺北市松山區延吉街１６號,松山區,延吉街
西華牙醫診所,121.5458355,25.05858413,臺北市松山區民生東路三段１１３巷６弄５號,松山區,民生東路
麟翔牙醫診所,121.545739,25.05369195,臺北市松山區慶城街２４號２樓,松山區,慶城街
生春牙醫診所,121.5615441,25.05169191,臺北市松山區南京東路五段139號,松山區,南京東路
崇民牙醫診所,121.5449191,25.05202561,臺北市松山區南京東路三段２５９號３樓,松山區,南京東路
雅安牙醫診所,121.5455231,25.06229178,臺北市松山區民權東路三段117號,松山區,民權東路
向虹牙醫診所,121.5499472,25.0623518,臺北市松山區民族東路７６１號,松山區,民族東路
景仲牙醫診所,121.5444524,25.05645056,臺北市松山區復興北路２１５號,松山區,復興北路
王誌牙醫診所,121.5468635,25.05998459,臺北市松山區民權東路三段１６０巷２４號,松山區,民權東路
立達牙醫診所,121.546788,25.06019961,臺北市松山區敦化北路２２２巷６２號,松山區,敦化北路
同心牙醫診所,121.5507999,25.04706428,臺北市松山區八德路三段１２巷７弄２號,松山區,八德路
仁惠牙醫診所,121.5523917,25.04645458,臺北市松山區八德路三段74巷64號,松山區,八德路
慶華牙醫診所,121.5532034,25.04729513,臺北市松山區延吉街１０巷８號,松山區,延吉街
宏國牙醫診所,121.555891,25.05845477,臺北市松山區民生東路五段１５號,松山區,民生東路
史丹佛牙醫診所,121.5546679,25.05182161,臺北市松山區南京東路四段１０７號２樓,松山區,南京東路
李國師牙醫診所,121.5531988,25.04831042,臺北市松山區八德路三段８１號２樓－２,松山區,八德路
延齡牙醫診所,121.564642,25.05706447,臺北市松山區延壽街１２５號,松山區,延壽街
凱悅牙醫診所,121.5477732,25.06152006,臺北市松山區民權東路三段１６０巷２－６號,松山區,民權東路
揚登牙醫診所,121.5660117,25.05001883,臺北市松山區南京東路五段２５０巷９－３號１樓,松山區,南京東路
上傑牙醫診所,121.5463242,25.04800312,臺北市松山區八德路二段３８６號２樓－３,松山區,八德路
小林牙醫診所,121.5661017,25.05275075,臺北市松山區南京東路五段２９１巷３２號,松山區,南京東路
立人牙醫診所,121.5451185,25.06243904,臺北市松山區民權東路三段１０３巷１號,松山區,民權東路
高登牙醫診所,121.5484715,25.06168952,臺北市松山區民權東路三段１６６號１樓,松山區,民權東路
林翰牙醫診所,121.5676446,25.05969718,臺北市松山區新東街３０巷42號,松山區,新東街
蔡嘉倫牙醫診所,121.5450755,25.05756232,臺北市松山區民生東路三段１１６號３樓,松山區,民生東路
峰牙醫診所,121.5502708,25.05795459,臺北市松山區民生東路四段49號、53號地下1樓,松山區,民生東路
嵩峰牙醫診所,121.5663191,25.06382688,臺北市松山區撫遠街３６７巷１０號,松山區,撫遠街
明君牙醫診所,121.5787884,25.05137323,臺北市松山區八德路四段８０５號,松山區,八德路
元品牙醫診所,121.5769002,25.05072164,臺北市松山區饒河街１９８號,松山區,饒河街
暘昇牙醫診所,121.5449093,25.05163191,臺北市松山區南京東路三段２６０－１號２樓,松山區,南京東路
啟瑞牙醫診所,121.5647056,25.05799499,臺北市松山區三民路１１０巷１０號１樓,松山區,三民路
台新牙醫診所,121.5620839,25.05855655,臺北市松山區民生東路五段１４６號２樓,松山區,民生東路
毛冠人牙醫診所,121.5581078,25.05324532,臺北市松山區南京東路五段２３巷１８號,松山區,南京東路
祐腎內科診所,121.5534615,25.05144713,臺北市松山區南京東路四段50號8樓,松山區,南京東路
介壽診所,121.5554573,25.05594665,臺北市松山區光復北路226號,松山區,光復北路
聯安診所,121.5530369,25.05132441,臺北市松山區南京東路4段16號地下二樓,松山區,南京東路
怡碩視光眼科診所,121.5460583,25.05885208,臺北市松山區復興北路313巷28號,松山區,復興北路
裕昇診所,121.5596903,25.05880508,臺北市松山區民生東路5段95號,松山區,民生東路
英田耳鼻喉科診所,121.5444178,25.05968331,臺北市松山區復興北路331號2樓,松山區,復興北路
永承診所,121.5504153,25.05421554,臺北市松山區敦化北路155巷9號地下一層,松山區,敦化北路
松山信合美眼科診所,121.5635651,25.05377595,臺北市松山區三民路      9號1樓、9之1號1樓、9之2號1樓、9之3號1樓、9之4號1樓、9之5號1樓,松山區,三民路
李士虹皮膚科診所,121.5464007,25.06187002,臺北市松山區民權東路3段136號3樓之1,松山區,民權東路
富樂診所,121.5494339,25.05470888,臺北市松山區敦化北路167號1樓A區,松山區,敦化北路
光一診所,121.5532456,25.04658092,臺北市松山區延吉街22巷1號1樓,松山區,延吉街
康健診所,121.5536117,25.04666568,臺北市松山區延吉街11號2樓;40號,松山區,延吉街
景賀時尚診所,121.5572219,25.05231133,臺北市松山區光復北路125號,松山區,光復北路
泛亞皮膚科整形外科診所,121.5442191,25.05008325,臺北市松山區復興北路35號4樓,松山區,復興北路
哈佛診所,121.5447731,25.06244828,臺北市松山區復興北路369號13樓,松山區,復興北路
聯欣診所,121.5530369,25.05132441,臺北市松山區南京東路4段16號5樓,松山區,南京東路
?眼明眼科診所,121.5469375,25.05199648,臺北市松山區南京東路三段309號2樓,松山區,南京東路
松原復健診所,121.5555046,25.05519153,臺北市松山區光復北路206號,松山區,光復北路
安德醫美診所,121.5521964,25.04807981,臺北市松山區八德路三段36號12樓,松山區,八德路
佳德診所,121.5527126,25.05282158,臺北市松山區健康路18號、18之1號1樓及地下1層,松山區,健康路
安德復復健專科診所,121.5553716,25.05841453,臺北市松山區光復北路181號地下二層,松山區,光復北路
周適偉診所,121.5442344,25.05085872,臺北市松山區復興北路69號7樓,松山區,復興北路
景賀診所,121.5592886,25.05876949,臺北市松山區民生東路5段85號,松山區,民生東路
弘光耳鼻喉科診所,121.5532813,25.05823805,臺北市松山區民生東路四段117號,松山區,民生東路
蘋果樹醫美診所,121.5469375,25.05199648,臺北市松山區南京東路三段309號3樓,松山區,南京東路
何兆芬健康診所,121.5508656,25.05189589,臺北市松山區南京東路四段47號2樓,松山區,南京東路
金贊診所,121.550605,25.05190161,臺北市松山區南京東路四段66號2樓、寧安街68巷25號2樓,松山區,南京東路
生昇復健專科診所,121.5635067,25.0559384,臺北市松山區三民路39號,松山區,三民路
美人魚時尚婦產科診所,121.5472863,25.05198864,臺北市松山區南京東路三段331號9樓,松山區,南京東路
聯青診所,121.5530472,25.0513321,臺北市松山區南京東四段16號地下一層,松山區,南京東四
安綺整形外科診所,121.5501261,25.05191036,臺北市松山區南京東路四段17號3樓,松山區,南京東路
立悅皮膚科診所,121.5597867,25.05130166,臺北市松山區南京東路五段46號4樓,松山區,南京東路
嘉美媞時尚醫美診所,121.5442344,25.05085872,臺北市松山區復興北路69號10樓,松山區,復興北路
鈞賀診所,121.5623333,25.06073742,臺北市松山區富錦街462號,松山區,富錦街
美仕媞時尚醫美診所,121.5495486,25.06146111,臺北市松山區民權東路三段178號15樓,松山區,民權東路
新心診所,121.5602471,25.05015937,臺北市松山區光復北路11巷63號,松山區,光復北路
李政洋身心診所,121.5638365,25.05650258,臺北市松山區三民路84號,松山區,三民路
史丹佛健康美學診所,121.5442932,25.05363681,臺北市松山區復興北路145號3樓,松山區,復興北路
松山大愛眼科診所,121.5655183,25.05157798,臺北市松山區南京東路五段269號1、2、3樓,松山區,南京東路
臻品絕色診所,121.5454468,25.05616305,臺北市松山區興安街157號,松山區,興安街
極光美學診所,121.550605,25.05190161,臺北市松山區南京東路四段25號2樓,松山區,南京東路
尚志塾遠絡診所,121.5566912,25.05137504,臺北市松山區南京東路四段164號3樓之1 ,松山區,南京東路
?悅診所,121.5682902,25.05109431,臺北市松山區南京東路五段324號,松山區,南京東路
延壽耳鼻喉科診所,121.5652482,25.057104,臺北市松山區延壽街113號,松山區,延壽街
麥茵茲美形診所,121.5479946,25.0519631,臺北市松山區南京東路三段337號10樓D室、E室,松山區,南京東路
髮王植髮診所,121.5451086,25.05342061,臺北市松山區慶城街21之3號3樓,松山區,慶城街
達特邱診所,121.5454185,25.04781738,臺北市松山區八德路二段350號2樓,松山區,八德路
澄東耳鼻喉科診所,121.5635238,25.05580069,臺北市松山區三民路37號,松山區,三民路
恩緹悠活時尚診所,121.545739,25.05369195,臺北市松山區慶城街24號4樓,松山區,慶城街
W頂尖醫美診所,121.545208,25.05162613,臺北市松山區南京東路三段270號4樓,松山區,南京東路
悠適復健科診所,121.5603091,25.05015884,臺北市松山區光復北路11巷65號,松山區,光復北路
台北法喬醫美診所,121.5444063,25.05883612,臺北市松山區復興北路311號3樓,松山區,復興北路
欣悅超美診所,121.5442406,25.05104597,臺北市松山區復興北路73號3樓,松山區,復興北路
聖光眼科診所,121.5509284,25.05142363,臺北市松山區南京東路四段181、183號,松山區,南京東路
南京帛瑿診所,121.5580912,25.05131989,臺北市松山區南京東路五段166、168號11樓,松山區,南京東路
康活診所,121.5444209,25.0598046,臺北市松山區復興北路333號5樓,松山區,復興北路
佳利安診所,121.5468061,25.05198232,臺北市松山區南京東路三段305號8樓,松山區,南京東路
駿昂耳鼻喉科診所,121.546401,25.04832456,臺北市松山區八德路二段395號,松山區,八德路
瑞麗嘉健康美學診所,121.5639636,25.05276138,臺北市松山區三民路18號2樓之2,松山區,三民路
髮立現健康醫學診所,121.5459346,25.05857569,臺北市松山區民生東路三段113巷6弄3號,松山區,民生東路
樂康診所,121.5569228,25.0482268,臺北市松山區八德路三段 221之1號,松山區,八德路
佑家診所,121.5571497,25.04824934,臺北市松山區八德路三段233號,松山區,八德路
安兒康小兒專科診所,121.5485708,25.0537913,臺北市松山區敦化北路116號、118號、118號2樓,松山區,敦化北路
南京光澤診所,121.5626647,25.05122241,臺北市松山區南京東路五段154號2樓、156號2樓,松山區,南京東路
榮恩耳鼻喉科小兒科聯合診所,121.5664714,25.05115104,臺北市松山區南京東路五段２５８號,松山區,南京東路
林聰賢婦產科診所,121.5678698,25.04935862,臺北市松山區八德路四段３４５號２Ｆ,松山區,八德路
劉內兒科診所,121.5621512,25.05849357,臺北市松山區民生東路五段148號、148之1號,松山區,民生東路
趙耳鼻喉科診所,121.5753698,25.05017444,臺北市松山區八德路四段６４９號一樓,松山區,八德路
謝耳鼻喉科診所,121.5621512,25.05849357,臺北市松山區民生東路五段１４８號２樓,松山區,民生東路
康明哲小兒科內科診所,121.5640804,25.06066469,臺北市松山區三民路１３６巷１５號,松山區,三民路
佳祐內兒科診所,121.5607683,25.04888465,臺北市松山區八德路四段９１巷１號,松山區,八德路
松山內兒科診所,121.5651087,25.04904326,臺北市松山區八德路四段２５５號,松山區,八德路
王俊彰耳鼻喉科診所,121.5559437,25.05846024,臺北市松山區民生東路五段１７號,松山區,民生東路
林志聖眼科診所,121.5634067,25.06068269,臺北市松山區三民路１４０號,松山區,三民路
陳泰安耳鼻喉科診所,121.5580509,25.05086108,臺北市松山區光復北路９７號,松山區,光復北路
張芳杰內兒科診所,121.5617033,25.05816757,臺北市松山區民生東路五段１３８巷７號,松山區,民生東路
高國隆婦產科診所,121.5651473,25.04904762,臺北市松山區八德路四段257號2樓,松山區,八德路
陳大昕耳鼻喉科診所,121.5607619,25.04836981,臺北市松山區八德路四段１００號,松山區,八德路
吳耳鼻喉科診所,121.5633289,25.05791644,臺北市松山區三民路１１３巷１－１號,松山區,三民路
陳炳堅內科診所,121.5603628,25.05678588,臺北市松山區延壽街３２７號,松山區,延壽街
新象整形外科診所,121.5456129,25.05161829,臺北市松山區南京東路三段２７８號７樓,松山區,南京東路
康瑞耳鼻喉科診所,121.5549625,25.04798034,臺北市松山區八德路三段154號1樓,松山區,八德路
朱家庭醫學科診所,121.5521379,25.04551124,臺北市松山區八德路三段１２巷５７弄３９之1號,松山區,八德路
吳慶南內科診所,121.5616986,25.05853211,臺北市松山區民生東路五段１３８巷１號,松山區,民生東路
華南小兒科診所,121.5526167,25.0460739,臺北市松山區延吉街３０巷１５號,松山區,延吉街
江建中診所,121.5659775,25.04913949,臺北市松山區八德路4段285號1樓,松山區,八德路
尚群眼科診所,121.5585464,25.05177026,臺北市松山區南京東路五段４３號１樓,松山區,南京東路
民生翁耳鼻喉科診所,121.5590485,25.05836364,臺北市松山區民生東路五段78號1樓,松山區,民生東路
江崇萍小兒科診所,121.5643511,25.05235736,臺北市松山區南京東路五段２５１巷２４弄２７號,松山區,南京東路
馮子強診所,121.5480015,25.0610438,臺北市松山區民權東路三段160巷7號,松山區,民權東路
安德聯合診所,121.5520212,25.04808014,臺北市松山區八德路三段３４號４樓及１２樓,松山區,八德路
安成診所,121.5640002,25.06111273,臺北市松山區富錦街４９７號,松山區,富錦街
美佳皮膚科診所,121.5552998,25.04794686,臺北市松山區八德路三段１６４號２樓,松山區,八德路
傅眼科診所,121.5550043,25.04797705,臺北市松山區八德路三段156號3樓,松山區,八德路
傳芳婦產科診所,121.5756195,25.05017933,臺北市松山區八德路四段６５９號６６１號一樓二樓,松山區,八德路
王貞乃皮膚科診所,121.5524985,25.05686152,臺北市松山區民生東路四段80巷6弄7號,松山區,民生東路
王躬仁診所,121.5605059,25.06018966,臺北市松山區新中街１２之３號１樓,松山區,新中街
車參薇小兒科診所,121.55619,25.04816251,臺北市松山區八德路三段195號１樓,松山區,八德路
洪小兒科診所,121.5646506,25.04808626,臺北市松山區市民大道五段１６５號１樓,松山區,市民大道
方一強眼科診所,121.5523677,25.05815428,臺北市松山區民生東路四段１０１號２樓,松山區,民生東路
趙彥宇邱慧嫻皮膚科聯合診所,121.5449445,25.05276205,臺北市松山區慶城街8之1號3樓及8號3樓,松山區,慶城街
京華皮膚科診所,121.5574058,25.0480445,臺北市松山區八德路三段238號,松山區,八德路
英爵聯合診所,121.5472863,25.05198864,臺北市松山區南京東路三段331號2樓,松山區,南京東路
閎新耳鼻喉科皮膚科聯合診所,121.5512194,25.04807217,臺北市松山區八德路三段20之2號,松山區,八德路
完全優整合醫學診所,121.5473276,25.05250418,臺北市松山區南京東路三段303巷6弄11號,松山區,南京東路
日聖眼科診所,121.560348,25.05928371,臺北市松山區新中街３５號,松山區,新中街
安美診所,121.5465704,25.04804319,臺北市松山區八德路二段400號3樓,松山區,八德路
正風復健科診所,121.5570987,25.05277896,臺北市松山區光復北路133及135號1樓,松山區,光復北路
大家好診所,121.553089,25.05658135,臺北市松山區民生東路四段８０巷１１弄２號１樓,松山區,民生東路
湘豐整形外科診所,121.5493413,25.05363711,臺北市松山區敦化北路１４１號５樓,松山區,敦化北路
蔡恭禮內兒科診所,121.5660367,25.05924027,臺北市松山區新東街28號之2,松山區,新東街
杏友診所,121.5551499,25.0484078,臺北市松山區八德路三段155巷2號,松山區,八德路
林忠志診所,121.5658071,25.05248338,臺北市松山區南京東路五段291巷20弄3之3號,松山區,南京東路
王世興醫師診所,121.5582845,25.0481359,臺北市松山區八德路四段10號,松山區,八德路
詹前俊小兒科診所,121.560077,25.05877572,臺北市松山區民生東路五段１０５號,松山區,民生東路
周玄文診所,121.5476379,25.06026821,臺北市松山區民權東路三段１６０巷１９弄６號,松山區,民權東路
余內科診所,121.5749314,25.04984504,臺北市松山區八德路四段６４６號,松山區,八德路
雷湘安皮膚科診所,121.5634692,25.05597654,臺北市松山區三民路43巷1號,松山區,三民路
張國華整形外科診所,121.559343,25.05131222,臺北市松山區南京東路五段34號2樓,松山區,南京東路
林永濤整形外科診所,121.5580183,25.04896485,臺北市松山區光復北路７號７樓,松山區,光復北路
安禾聯合診所,121.5495486,25.06146111,臺北市松山區民權東路三段一七八號三樓,松山區,民權東路
親親家庭診所,121.5677556,25.05154682,臺北市松山區南京東路五段347號,松山區,南京東路
黎博彥診所,121.5658309,25.0589277,臺北市松山區民生東路五段230號,松山區,民生東路
美麗優品時尚診所,121.5522216,25.05852888,臺北市松山區民生東路四段97巷2弄1號,松山區,民生東路
宇恩復健科診所,121.5467418,25.06050067,臺北市松山區民權東路三段140巷15號3樓,松山區,民權東路
正顏診所,121.5466577,25.04730856,臺北市松山區八德路二段410巷12號,松山區,八德路
奧斯卡眼科診所,121.5492983,25.04691499,臺北市松山區敦化南路一段7號3樓之1,松山區,敦化南路
邱楠超診所,121.5534148,25.04681332,臺北市松山區延吉街20號1樓,松山區,延吉街
信恩美醫診所,121.5263754,25.03422882,臺北市大安區信義路二段７２號４樓,大安區,信義路
張少萌婦產科診所,121.5515268,25.03356297,臺北市大安區信義路四段１９９巷２號４樓之１之２,大安區,信義路
劉耳鼻喉科診所,121.5446626,25.02846972,臺北市大安區復興南路2段151巷27號、27之1號,大安區,復興南路
曹眼科診所,121.5441468,25.02497781,臺北市大安區和平東路二段２６９號２樓,大安區,和平東路
忠孝眼科診所,121.5468475,25.04135697,臺北市大安區忠孝東路四段１１２號６樓－７,大安區,忠孝東路
董曉青眼科診所,121.5526778,25.0304018,臺北市大安區安和路二段69巷6號2樓,大安區,安和路
大安黃耳鼻喉科診所,121.5547917,25.02199074,臺北市大安區和平東路3段234號,大安區,和平東路
黃禎祥診所,121.5285903,25.02368094,臺北市大安區師大路７１號,大安區,師大路
陳秀鳳婦產科診所,121.542117,25.025254,臺北市大安區和平東路二段１９１號２樓,大安區,和平東路
大安林內科診所,121.5491689,25.03461356,臺北市大安區敦化南路一段３２１號５樓,大安區,敦化南路
新鑫耳鼻喉科診所,121.5290743,25.02260771,臺北市大安區師大路１０５巷１３號１樓,大安區,師大路
陳志明診所,121.5457216,25.02489084,臺北市大安區和平東路二段３３７號,大安區,和平東路
蔡國仁內兒科診所,121.5406138,25.04290845,臺北市大安區忠孝東路三段２１７巷４弄２１號,大安區,忠孝東路
詹骨科診所,121.5450037,25.0336612,臺北市大安區信義路四段５３巷６號,大安區,信義路
詹內科診所,121.5251705,25.02705652,臺北市大安區和平東路一段７７－２號,大安區,和平東路
吳坤光婦產科診所,121.5454398,25.03353139,臺北市大安區信義路四段５９號,大安區,信義路
楊懷卿耳鼻喉科診所,121.5553008,25.03886191,臺北市大安區光復南路３０８巷５５號,大安區,光復南路
劉達昌眼科診所,121.5548764,25.02190607,臺北市大安區和平東路三段２３８號,大安區,和平東路
林青穀家庭醫學科診所,121.5460077,25.04484667,臺北市大安區大安路1段2之1號,大安區,大安路
博全婦產科診所,121.5453171,25.03651613,臺北市大安區大安路一段18號、16巷1、1-1、3、3-1、5、5-1號2樓,大安區,大安路
鄭耳鼻喉科診所,121.5567021,25.03330006,臺北市大安區信義路四段３４１號,大安區,信義路
施崇仁耳鼻喉科診所,121.5452245,25.02519614,臺北市大安區和平東路二段３１１巷13號１Ｆ,大安區,和平東路
林繼國診所,121.53911,25.04240692,臺北市大安區忠孝東路三段２１７巷１弄１２號１樓,大安區,忠孝東路
馬大勳婦產科診所,121.54984,25.03966828,臺北市大安區安和路一段１１號２樓－１,大安區,安和路
頂好林耳鼻喉科診所,121.5469007,25.04348931,臺北市大安區敦化南路一段１６０巷５０號,大安區,敦化南路
黃禎憲皮膚科診所,121.5285903,25.02368094,臺北市大安區師大路７1號2樓及７7號,大安區,師大路
非凡整形外科診所,121.5502891,25.04128469,臺北市大安區忠孝東路四段一六二號三樓,大安區,忠孝東路
大學眼科診所,121.5338185,25.02078339,臺北市大安區新生南路3段54之3號、54巷2號2樓、54巷2號2樓之1,大安區,新生南路
陳建銓耳鼻喉科診所,121.5522782,25.02550669,臺北市大安區樂利路９３號１Ｆ,大安區,樂利路
張尚哲婦產科診所,121.5524928,25.04123425,臺北市大安區忠孝東路四段２１０號４Ｆ,大安區,忠孝東路
李翔耳鼻喉科診所,121.536098,25.0256434,臺北市大安區和平東路2段18之8號2Ｆ,大安區,和平東路
霍天年整形外科診所,121.5511656,25.04168708,臺北市大安區忠孝東路四段一九一號六樓之一,大安區,忠孝東路
葉明憲小兒科診所,121.5280843,25.0210768,臺北市大安區羅斯福路三段１９１號２Ｆ,大安區,羅斯福路
張渝醫師診所,121.5497616,25.02213668,臺北市大安區基隆路二段２７０號１Ｆ,大安區,基隆路
羅斯福診所,121.5301616,25.01912307,臺北市大安區羅斯福路3段253號2樓，2樓之1，2樓之3,大安區,羅斯福路
啟誠聯合診所,121.5429333,25.02474116,臺北市大安區和平東路二段120號1樓、2樓、3樓、4樓,大安區,和平東路
通化延吉診所,121.555108,25.03477046,臺北市大安區信義路四段２６５巷３６號,大安區,信義路
林正宗婦產科診所,121.5513263,25.02428172,臺北市大安區和平東路三段100號2樓,大安區,和平東路
蔣曉山整形外科診所,121.5485004,25.04254636,臺北市大安區敦化南路一段１９２號２樓,大安區,敦化南路
欣美精神科診所,121.5422489,25.03767669,臺北市大安區仁愛路三段146號9樓,大安區,仁愛路
李婦產科診所,121.5278216,25.03300755,臺北市大安區金山南路2段31巷9號、9號5樓,大安區,金山南路
經典整形外科診所,121.5459024,25.04137033,臺北市大安區忠孝東路四段９４之５號６樓,大安區,忠孝東路
皇家診所,121.5298109,25.01971593,臺北市大安區羅斯福路三段２２７號１０樓,大安區,羅斯福路
劉賢平婦產科診所,121.5554566,25.03827723,臺北市大安區延吉街１７５號２樓,大安區,延吉街
景德耳鼻喉科診所,121.542117,25.025254,臺北市大安區和平東路二段１９１號,大安區,和平東路
誼安診所,121.5447441,25.03823548,臺北市大安區仁愛路四段二五號三A,大安區,仁愛路
黃清浩耳鼻喉科診所,121.5573756,25.03620481,臺北市大安區光復南路430號,大安區,光復南路
忠孝大學眼科診所,121.5457604,25.04137255,臺北市大安區忠孝東路四段七十六號二樓,大安區,忠孝東路
呂小兒科診所,121.5538909,25.03174585,臺北市大安區通化街二十四巷六號一樓,大安區,通化街
陳惠章婦產科家庭醫學科診所,121.5303123,25.01897851,臺北市大安區羅斯福路三段二六一號二樓,大安區,羅斯福路
黃崇禮皮膚科診所,121.5430495,25.03318891,臺北市大安區信義路三段192-1號3樓,大安區,信義路
秋江外科診所,121.5296862,25.03355994,臺北市大安區信義路二段一七八號二樓,大安區,信義路
洪醫師診所,121.5400682,25.04223816,臺北市大安區忠孝東路三段二一七巷二弄六號一樓,大安區,忠孝東路
窈窕診所,121.5433724,25.03290133,臺北市大安區復興南路二段八號二樓,大安區,復興南路
適健復健科診所,121.5505006,25.0412823,臺北市大安區忠孝東路4段166號8樓、9樓,大安區,忠孝東路
大安整形外科診所,121.5468475,25.04135697,臺北市大安區忠孝東路四段一一二號九樓之六,大安區,忠孝東路
家安復健科診所,121.5491852,25.03152256,臺北市大安區敦化南路二段一六八及一七0號地下一樓,大安區,敦化南路
于賓診所,121.5435422,25.0418867,臺北市大安區忠孝東路3段305號7樓之4、5、6,大安區,忠孝東路
綺顏診所,121.5497749,25.03829915,臺北市大安區仁愛路四段一0九號二樓B室,大安區,仁愛路
蘇仁和耳鼻喉科診所,121.54984,25.03966828,臺北市大安區安和路一段十一號四樓之一,大安區,安和路
游鴻儒皮膚科診所,121.5517286,25.04047908,臺北市大安區仁愛路四段一五一巷三六號二樓,大安區,仁愛路
薇妮斯整形外科診所,121.5439896,25.04139122,臺北市大安區忠孝東路四段一二O之一二號十二樓,大安區,忠孝東路
柯嘉音小兒科診所,121.5532065,25.03457164,臺北市大安區安和路一段127巷12號,大安區,安和路
儷人整形外科診所,121.5453725,25.04137468,臺北市大安區忠孝東路四段六十號五樓之一,大安區,忠孝東路
尖端診所,121.5483589,25.02417399,臺北市大安區敦化南路二段一六八號十一樓,大安區,敦化南路
滿意婦產科診所,121.5307028,25.01858722,臺北市大安區羅斯福路三段二七一號三樓及三樓之一,大安區,羅斯福路
和平大愛眼科診所,121.523047,25.02684652,臺北市大安區和平東路一段六號二樓,大安區,和平東路
非凡皮膚科診所,121.5505006,25.0412823,臺北市大安區忠孝東路四段一六六號三樓之三,大安區,忠孝東路
宜德復健科診所,121.5540586,25.02268013,臺北市大安區和平東路三段二一0號,大安區,和平東路
杏語心靈診所,121.5434965,25.03969162,臺北市大安區復興南路1段200號11樓,大安區,復興南路
漂亮愛爾麗整形外科診所,121.5563273,25.04158688,臺北市大安區忠孝東路4段325號3樓,大安區,忠孝東路
華漾皮膚專科診所,121.5309049,25.02991491,臺北市大安區金華街二四九號,大安區,金華街
鍾啟榮皮膚科診所,121.5479512,25.0400838,臺北市大安區敦化南路一段二OO號三樓之一,大安區,敦化南路
曾皮膚科診所,121.525648,25.03458346,臺北市大安區信義路二段三十八號一樓,大安區,信義路
優名整形外科診所,121.5519171,25.03982424,臺北市大安區忠孝東路四段二一六巷三十二弄二十號三樓,大安區,忠孝東路
琳安診所,121.5499128,25.03305692,臺北市大安區信義路4段138號3樓、140號3樓,大安區,信義路
曾醫師診所,121.5561296,25.03708261,臺北市大安區延吉街二三三巷九號五樓,大安區,延吉街
張國麟耳鼻喉科診所,121.5527267,25.02479844,臺北市大安區和平東路三段一四七號一樓,大安區,和平東路
極緻皮膚專科診所,121.5453261,25.04202819,臺北市大安區忠孝東路四段49巷2號7樓,大安區,忠孝東路
大安春暉診所,121.5468647,25.0430219,臺北市大安區大安路一段一八O號二樓,大安區,大安路
許世賓婦產科診所,121.5317893,25.02653119,臺北市大安區和平東路一段169號2、4樓，171號2樓,大安區,和平東路
長松眼科診所,121.5459337,25.03946582,臺北市大安區大安路一段一二六巷一號,大安區,大安路
周大中婦產科診所,121.5482707,25.03130757,臺北市大安區敦化南路二段四十六號二樓,大安區,敦化南路
貝拉整形外科診所,121.5529668,25.03379284,臺北市大安區安和路1段141巷6號 (實際營業地址:1樓),大安區,安和路
慈民骨科診所,121.5557944,25.03691554,臺北市大安區延吉街233巷2號,大安區,延吉街
尚行美皮膚專科診所,121.5573792,25.03939031,臺北市大安區光復南路288號2樓之5、4樓之3,大安區,光復南路
知美整形外科診所,121.5525767,25.04166222,臺北市大安區忠孝東路4段221號6樓,大安區,忠孝東路
大安耳鼻喉科診所,121.5436998,25.02794949,臺北市大安區復興南路二段163號,大安區,復興南路
藝林整形外科診所,121.5319308,25.01737298,臺北市大安區羅斯福路3段309號4樓之2,大安區,羅斯福路
光能身心診所,121.5443843,25.04183689,臺北市大安區忠孝東路四段15號8樓,大安區,忠孝東路
亞立山大時尚整形診所,121.5482899,25.04174825,臺北市大安區忠孝東路4段107號3樓之1,大安區,忠孝東路
台北仁悅皮膚科診所,121.5571088,25.0415617,臺北市大安區忠孝東路四段333號3樓,大安區,忠孝東路
安麗整形外科診所,121.5439473,25.03916555,臺北市大安區復興南路1段215號6樓,大安區,復興南路
林慧雯婦產科診所,121.5525802,25.04123261,臺北市大安區忠孝東路4段210之1號2樓,大安區,忠孝東路
祥欽診所,121.5393836,25.04326173,臺北市大安區忠孝東路3段217巷5弄5號,大安區,忠孝東路
哈利路亞曾英欽診所,121.5346228,25.03860656,臺北市大安區仁愛路3段29號地下室,大安區,仁愛路
全家聯合診所,121.546163,25.02486892,臺北市大安區和平東路二段３５３號,大安區,和平東路
沈德昌診所,121.5481229,25.02766758,臺北市大安區四維路１８９號１樓,大安區,四維路
優德診所,121.5548131,25.04057764,臺北市大安區延吉街１５３－２號５樓,大安區,延吉街
安法診所,121.5491847,25.02891252,臺北市大安區敦化南路二段９７號２７樓,大安區,敦化南路
謝林診所,121.5461028,25.03221144,臺北市大安區大安路2段21號,大安區,大安路
簡萬居耳鼻喉科診所,121.5298754,25.01976983,臺北市大安區辛亥路一段２８號,大安區,辛亥路
陳柏豪耳鼻喉科診所,121.5232814,25.0268277,臺北市大安區和平東路一段１０號,大安區,和平東路
王暉政眼科診所,121.5281272,25.02193929,臺北市大安區師大路１１０號１Ｆ,大安區,師大路
仁安診所,121.5417569,25.02686976,臺北市大安區和平東路二段一七五巷三十四號一樓,大安區,和平東路
實美整形外科診所,121.5455189,25.03377296,臺北市大安區信義路四段６３號１樓,大安區,信義路
萬通耳鼻喉科診所,121.5538775,25.04336493,臺北市大安區延吉街６４－２號１樓,大安區,延吉街
誠品診所,121.5494085,25.03476164,臺北市大安區敦化南路一段３１７號,大安區,敦化南路
佳音診所,121.5438766,25.03622242,臺北市大安區復興南路一段２６１之３號１樓,大安區,復興南路
蔡博庸整形外科診所,121.5531181,25.04164375,臺北市大安區忠孝東路四段231號7樓之1,大安區,忠孝東路
同心婦產科診所,121.5454038,25.03594418,臺北市大安區東豐街２６號,大安區,東豐街
新長安診所,121.5534913,25.0207667,臺北市大安區和平東路三段２２８巷３９號,大安區,和平東路
陳瑞鵬婦產科診所,121.5506355,25.03342465,臺北市大安區信義路四段１７７號２樓,大安區,信義路
?安診所,121.540987,25.04184876,臺北市大安區忠孝東路3段243號3樓,大安區,忠孝東路
李唯通診所,121.5549354,25.02085624,臺北市大安區安居街十九號,大安區,安居街
安居診所,121.5551716,25.02163646,臺北市大安區和平東路3段252號,大安區,和平東路
陳俊松診所,121.5540563,25.02994545,臺北市大安區通化街八十八號一樓,大安區,通化街
梁偉中整形外科診所,121.5439896,25.04139122,臺北市大安區忠孝東路四段一二四之四號五樓,大安區,忠孝東路
延吉診所,121.5559227,25.03588782,臺北市大安區延吉街二四一巷二弄五號一樓,大安區,延吉街
東西診所,121.5492521,25.03677648,臺北市大安區敦化南路1段259號2樓,大安區,敦化南路
祥光診所,121.5359157,25.04167342,臺北市大安區忠孝東路三段八十六號十一樓之一,大安區,忠孝東路
杏心診所,121.5259068,25.02777667,臺北市大安區金山南路二段218號5樓,大安區,金山南路
電眼美人診所,121.5407705,25.04184989,臺北市大安區忠孝東路三段239號3樓,大安區,忠孝東路
微整形外科診所,121.5439814,25.04130654,臺北市大安區忠孝東路4段2號7樓之8、7樓之9,大安區,忠孝東路
佳醫美人診所,121.5477498,25.03759615,臺北市大安區仁愛路四段66號2樓,大安區,仁愛路
泛美診所,121.5547375,25.04161067,臺北市大安區忠孝東路四段289號5樓之7,大安區,忠孝東路
康婕婦產科診所,121.5564672,25.04065765,臺北市大安區光復南路240巷23號2樓,大安區,光復南路
永誠復健科診所,121.5431388,25.02512563,臺北市大安區復興南路二段236號2樓,大安區,復興南路
新慶生診所,121.5517286,25.04047908,臺北市大安區仁愛路四段151巷36號2樓之1,大安區,仁愛路
優美診所,121.532511,25.03328779,臺北市大安區新生南路二段2號7樓之5,大安區,新生南路
潤弘診所,121.5372657,25.02517338,臺北市大安區建國南路二段276號3樓,大安區,建國南路
敦南心診所,121.5524272,25.02502355,臺北市大安區樂利路109號,大安區,樂利路
陳偉寶泌尿科診所,121.5458064,25.04179209,臺北市大安區忠孝東路四段59號7樓、7樓之1,大安區,忠孝東路
劉建宏診所,121.5460995,25.02856587,臺北市大安區大安路二段139號,大安區,大安路
金郁婦產科診所,121.5506474,25.04169815,臺北市大安區忠孝東路四段177號7樓之4,大安區,忠孝東路
星星親子眼科診所,121.5385729,25.03327756,臺北市大安區信義路三段114號2樓,大安區,信義路
榮主診所,121.5564373,25.03971797,臺北市大安區光復南路280巷23號3樓,大安區,光復南路
忠孝世賓婦產科診所,121.5513463,25.04126615,臺北市大安區忠孝東路四段176號4樓,大安區,忠孝東路
聯合整形外科診所,121.5325328,25.03303383,臺北市大安區新生南路二段8號2樓,大安區,新生南路
楷鈞診所,121.5437102,25.02867836,臺北市大安區復興南路2段139號3樓,大安區,復興南路
永悅診所,121.5449275,25.04139431,臺北市大安區忠孝東路四段50號7樓,大安區,忠孝東路
春天診所,121.5514132,25.03301941,臺北市大安區信義路四段184號3樓,大安區,信義路
安吉耳鼻喉科診所,121.554437,25.02233437,臺北市大安區和平東路三段226號,大安區,和平東路
薇娜時尚美學診所,121.5454341,25.04181223,臺北市大安區忠孝東路4段53之2號,大安區,忠孝東路
安仁診所,121.5504243,25.03912984,臺北市大安區安和路1段29號6樓,大安區,安和路
許靜瑛小兒科診所,121.532344,25.02608881,臺北市大安區和平東路1段230號1樓,大安區,和平東路
莊國豐婦產科診所,121.5231852,25.02683541,臺北市大安區和平東路1段8號2樓,大安區,和平東路
奐采美診所,121.5449275,25.04139431,臺北市大安區忠孝東路4段50號5樓,大安區,忠孝東路
愛爾麗診所,121.5435422,25.0418867,臺北市大安區忠孝東路三段305號3樓,大安區,忠孝東路
維昕時尚診所,121.5440207,25.04238637,臺北市大安區復興南路1段137號4樓之7、4樓之8,大安區,復興南路
群英整形外科診所,121.5547145,25.03334363,臺北市大安區信義路4段279號3樓、281號3樓,大安區,信義路
杏誠復健科診所,121.5504635,25.03342861,臺北市大安區信義路4段173號2樓  ,大安區,信義路
博安家庭醫學科診所,121.5290384,25.03224576,臺北市大安區麗水街3號,大安區,麗水街
楊氏診所,121.5564454,25.03990471,臺北市大安區光復南路280巷24號 3、4、5樓,大安區,光復南路
輕鬆美膚皮膚科診所,121.531859,25.01744727,臺北市大安區羅斯福路3段301號3樓,大安區,羅斯福路
鼎心診所,121.532511,25.03328779,臺北市大安區新生南路2段2號2樓之5,大安區,新生南路
王品診所,121.5484908,25.0428159,臺北市大安區敦化南路1段184號6樓,大安區,敦化南路
群維診所,121.5359718,25.04167039,臺北市大安區忠孝東路3段88號2樓、2樓之1,大安區,忠孝東路
田嘉程診所,121.5557021,25.03634116,臺北市大安區延吉街239之1號,大安區,延吉街
昕彤診所,121.5469597,25.04181025,臺北市大安區忠孝東路4段73之3號(4樓),大安區,忠孝東路
陳峙仰診所,121.5484424,25.033599,臺北市大安區敦化南路1段376號4樓之1,大安區,敦化南路
瀚群骨科診所,121.5439129,25.03853238,臺北市大安區復興南路1段227號1樓及地下1樓,大安區,復興南路
王群光自然診所,121.5307028,25.01858722,臺北市大安區羅斯福路3段271號10樓,大安區,羅斯福路
芙蕾亞時尚診所,121.5436069,25.04415241,臺北市大安區復興南路1段70號3樓之1,大安區,復興南路
諾美整形外科診所,121.5454955,25.04277298,臺北市大安區復興南路1段135巷27號2樓之2,大安區,復興南路
那明珠診所,121.5469578,25.02452887,臺北市大安區和平東路3段8號,大安區,和平東路
安禾眼科診所,121.5497795,25.0334449,臺北市大安區信義路4段151號2樓之2,大安區,信義路
捷靚皮膚專科診所,121.544854,25.03354571,臺北市大安區信義路4段45號3樓之3,大安區,信義路
台北亞緻診所,121.5440605,25.03767283,臺北市大安區仁愛路4段2號6樓,大安區,仁愛路
昱捷診所,121.5433242,25.03318129,臺北市大安區信義路3段202號9樓之2、9樓之3,大安區,信義路
童顏診所,121.541336,25.04229801,臺北市大安區忠孝東路3段251巷4弄6號,大安區,忠孝東路
米洛斯整形外科診所,121.5438082,25.0337605,臺北市大安區復興南路1段323號6樓,大安區,復興南路
邱醫師診所,121.5560735,25.02079831,臺北市大安區和平東路3段288號,大安區,和平東路
星采整形外科診所,121.5438213,25.03188998,臺北市大安區復興南路2段27號2樓、27號2樓（之1 、之2、之3、之4、之7、之8、之9、之10、之11、之12、之13、之14、之15、之16、之17、之18、之19、之20、之21、之22、之23、之24、之25、之26、之27、之28、之29、之30、之31）,大安區,復興南路
小林醫師診所,121.5492885,25.04056811,臺北市大安區敦化南路1段225號地下二層之19,大安區,敦化南路
陳詩明醫師診所,121.5476627,25.04108639,臺北市大安區忠孝東路4段126之3號,大安區,忠孝東路
聖侯診所,121.5533205,25.01996534,臺北市大安區樂業街139號,大安區,樂業街
宇寧身心診所,121.543374,25.03295221,臺北市大安區復興南路2段6號3樓,大安區,復興南路
黃文香兒科診所,121.5542159,25.04120263,臺北市大安區忠孝東路4段250號2樓之1,大安區,忠孝東路
美安診所,121.5472419,25.04135281,臺北市大安區忠孝東路4段120之11號11樓,大安區,忠孝東路
晶晏時尚診所,121.5466486,25.04197429,臺北市大安區忠孝東路4段67之3號4樓,大安區,忠孝東路
美之約醫美診所,121.5453725,25.04137468,臺北市大安區忠孝東路4段60號12樓之2及12樓之3,大安區,忠孝東路
富霖診所,121.5491852,25.03152256,臺北市大安區敦化南路2段333、335號4樓,大安區,敦化南路
敦平診所,121.5491852,25.03152256,臺北市大安區敦化南路2段333、335號3樓,大安區,敦化南路
春暘診所,121.5482707,25.03130757,臺北市大安區敦化南路2段46號16樓,大安區,敦化南路
健華診所,121.5447784,25.02494407,臺北市大安區和平東路2段299號(實際營業地址:1樓),大安區,和平東路
松德診所,121.5472668,25.02811179,臺北市大安區四維路170巷16號,大安區,四維路
榮新診所,121.5372657,25.02517338,臺北市大安區建國南路2段276號8樓、9樓,大安區,建國南路
雅丰美膚診所,121.5525767,25.04166222,臺北市大安區忠孝東路4段221號5樓,大安區,忠孝東路
主愛心靈診所,121.5320624,25.01834095,臺北市大安區羅斯福路3段283巷14弄6號,大安區,羅斯福路
優活麗診所,121.5438744,25.0364999,臺北市大安區復興南路1段259號2樓之1,大安區,復興南路
夏爾診所,121.5555368,25.03498485,臺北市大安區信義路4段265巷52號、54號,大安區,信義路
王修含皮膚科診所,121.5571088,25.0415617,臺北市大安區忠孝東路四段333號4樓,大安區,忠孝東路
立?診所,121.5399396,25.02865118,臺北市大安區建國南路二段151巷52號,大安區,建國南路
麗質添生整形外科診所,121.5365131,25.03422273,臺北市大安區新生南路一段165巷41號、41之1號,大安區,新生南路
嘉仕美整形外科診所,121.553932,25.04120422,臺北市大安區忠孝東路4段230號2樓,大安區,忠孝東路
丰雅時尚診所,121.5525767,25.04166222,臺北市大安區忠孝東路四段221號11樓,大安區,忠孝東路
愛美薇診所,121.5443553,25.03363639,臺北市大安區信義路4段1號5樓之1,大安區,信義路
明錦整形外科診所,121.5479987,25.0413348,臺北市大安區忠孝東路4段128號3樓,大安區,忠孝東路
旭彤診所,121.5470497,25.04012018,臺北市大安區大安路1段101巷10號5樓,大安區,大安路
尼斯診所,121.5466515,25.04274778,臺北市大安區敦化南路1段190巷51號、53號,大安區,敦化南路
適群復健科診所,121.5458683,25.02661855,臺北市大安區四維路198巷32號、32之1號、32之2號、34號、36號、36之2號,大安區,四維路
嘉仕萌診所,121.553932,25.04120422,臺北市大安區忠孝東路4段230號5樓,大安區,忠孝東路
教主醫美整形外科診所,121.523047,25.02684652,臺北市大安區和平東路一段6號5樓、5樓之1、5樓之2,大安區,和平東路
大仁診所,121.5499812,25.04171134,臺北市大安區忠孝東路四段153號2樓,大安區,忠孝東路
美式診所,121.546489,25.03891687,臺北市大安區敦化南路1段270巷34號1樓及地下1樓,大安區,敦化南路
凡登整形外科診所,121.542145,25.0336233,臺北市大安區信義路三段149號4樓、149號4樓之1,大安區,信義路
聖宜診所,121.5476627,25.04108639,臺北市大安區忠孝東路4段126之12號(12樓)、126之24號(12樓),大安區,忠孝東路
伊美診所,121.5512401,25.02752059,臺北市大安區樂利路20號2樓,大安區,樂利路
奧美醫美診所,121.5434965,25.03969162,臺北市大安區復興南路一段200號4樓,大安區,復興南路
信義英爵醫美診所,121.551818,25.03300551,臺北市大安區信義路四段206號、208號2樓、210號2樓,大安區,信義路
艾萊克時尚診所,121.5502891,25.04128469,臺北市大安區忠孝東路四段162號7樓之3,大安區,忠孝東路
亞太醫美外科診所,121.5522418,25.03067685,臺北市大安區安和路2段60號11樓之1,大安區,安和路
延吉美皮膚專科診所,121.5542159,25.04120263,臺北市大安區忠孝東路四段250號3樓之1、3樓之2,大安區,忠孝東路
銘妍診所,121.5482899,25.04174825,臺北市大安區忠孝東路四段107號8樓,大安區,忠孝東路
忠孝雅美姬時尚診所,121.5511656,25.04168708,臺北市大安區忠孝東路四段191號8樓,大安區,忠孝東路
雅丰麗緻診所,121.5525767,25.04166222,臺北市大安區忠孝東路4段221號5樓,大安區,忠孝東路
綺色佳診所,121.5483766,25.02609173,臺北市大安區敦化南路二段128號地下層,大安區,敦化南路
灩妮醫美診所,121.5232814,25.0268277,臺北市大安區和平東路一段10號3樓,大安區,和平東路
光慧診所,121.5432671,25.02751059,臺北市大安區復興南路二段176號,大安區,復興南路
愛群婦產科診所,121.5422654,25.03319964,臺北市大安區信義路三段178號2樓、7樓,大安區,信義路
微顏整形外科診所,121.5497531,25.03833674,臺北市大安區仁愛路四段107號5樓,大安區,仁愛路
禾馨新生婦幼診所,121.5346298,25.02577881,臺北市大安區新生南路三段2號、2號2樓、2號3樓,大安區,新生南路
光澤診所,121.544042,25.04184178,臺北市大安區忠孝東路四段1號5樓、8樓,大安區,忠孝東路
靚世紀診所,121.5500384,25.04171046,臺北市大安區忠孝東路四段155號3樓,大安區,忠孝東路
吳濬哲骨科診所,121.5484367,25.03624191,臺北市大安區敦化南路1段294號,大安區,敦化南路
和麗診所,121.5273116,25.02691279,臺北市大安區和平東路1段121號2樓,大安區,和平東路
光彩時尚診所,121.5511656,25.04168708,臺北市大安區忠孝東路四段191號6樓,大安區,忠孝東路
巨星整形外科診所,121.5482899,25.04174825,臺北市大安區忠孝東路四段107號5樓之2,大安區,忠孝東路
麗式診所,121.5526993,25.03581096,臺北市大安區安和路1段101號、103號,大安區,安和路
自體心理診所,121.5549485,25.04004488,臺北市大安區延吉街153之9號3樓,大安區,延吉街
京品醫美診所,121.541549,25.04184611,臺北市大安區忠孝東路3段249之1號7樓,大安區,忠孝東路
晴天身心診所,121.5543671,25.0423264,"臺北市大安區延吉街	135之3號2樓",大安區,延吉街
首爾醫美診所,121.5560174,25.03290869,臺北市大安區信義路4段382號5樓,大安區,信義路
蔡凱宙自然骨科診所,121.5319308,25.01737298,臺北市大安區羅斯福路3段309號4樓之3,大安區,羅斯福路
東區時尚美學診所,121.5483558,25.04133342,臺北市大安區忠孝東路4段134號9樓,大安區,忠孝東路
君綺大安診所,121.5445363,25.0414022,臺北市大安區忠孝東路4段30號3樓、4樓,大安區,忠孝東路
全美診所,121.5440324,25.04308637,臺北市大安區復興南路1段127號3樓、3樓之1,大安區,復興南路
敦南英爵醫美診所,121.5474914,25.04048382,臺北市大安區敦化南路1段236巷20號,大安區,敦化南路
新聖整形外科診所,121.542145,25.0336233,臺北市大安區信義路三段149號14樓,大安區,信義路
奧拉克診所,121.5443843,25.04183689,臺北市大安區忠孝東路四段15號6樓之1,大安區,忠孝東路
嘉德麗雅診所,121.5500452,25.03344081,臺北市大安區信義路4段155號7樓,大安區,信義路
喬雅時尚診所,121.5497096,25.0417784,臺北市大安區忠孝東路四段147巷1號10樓,大安區,忠孝東路
達仁診所,121.5307219,25.03344603,臺北市大安區信義路2段208號4樓,大安區,信義路
華特診所,121.557357,25.04155944,臺北市大安區忠孝東路四段341號5樓之1,大安區,忠孝東路
願麗醫美診所,121.5458436,25.03820973,臺北市大安區仁愛路4段33號2樓之1,大安區,仁愛路
名媛芭比時尚醫美診所,121.5558889,25.03292426,臺北市大安區信義路4段380號,大安區,信義路
瑞御診所,121.5492521,25.03677648,臺北市大安區敦化南路一段259號12樓,大安區,敦化南路
輝馥復健專科診所,121.5533378,25.04111115,臺北市大安區忠孝東路4段218之5號2樓,大安區,忠孝東路
智博診所,121.554439,25.03396137,臺北市大安區信義路4段265巷11號,大安區,信義路
緻美整形外科診所,121.5473143,25.03760531,臺北市大安區仁愛路四段50之3號(2樓),大安區,仁愛路
珍世明眼科診所,121.5479189,25.03308638,臺北市大安區信義路4段98號2樓,大安區,信義路
司鉑診所,121.5479987,25.0413348,臺北市大安區忠孝東路4段128號12樓,大安區,忠孝東路
馨思身心精神科診所,121.5307219,25.03344603,臺北市大安區信義路2段208號7樓之1,大安區,信義路
小禾馨小兒專科診所,121.5346037,25.02557546,臺北市大安區新生南路三段4號,大安區,新生南路
潘健理診所,121.5359157,25.04167342,臺北市大安區忠孝東路三段86號8樓,大安區,忠孝東路
陽光心靈診所,121.5301616,25.01912307,臺北市大安區羅斯福路三段253號6樓之2,大安區,羅斯福路
百康診所,121.5571088,25.0415617,臺北市大安區忠孝東路四段333號8樓之3,大安區,忠孝東路
鴻馨診所,121.5459567,25.03149837,臺北市大安區大安路2段86之1號,大安區,大安路
風華御髮植髮診所,121.5221544,25.02777881,臺北市大安區羅斯福路二段33號4樓,大安區,羅斯福路
水天使診所,121.5533731,25.04121378,臺北市大安區忠孝東路4段220號6樓、10樓,大安區,忠孝東路
舒妍時尚診所,121.5532547,25.04023188,臺北市大安區忠孝東路四段216巷19弄4號2樓,大安區,忠孝東路
尚凌診所,121.5419046,25.0418438,臺北市大安區忠孝東路三段257號3樓、261號2樓,大安區,忠孝東路
佳立得耳鼻喉科診所,121.5331883,25.03428621,臺北市大安區新生南路一段165巷1號,大安區,新生南路
晶漾診所,121.5572759,25.0426294,臺北市大安區光復南路180巷2號2樓,大安區,光復南路
大中診所,121.5542038,25.03367481,臺北市大安區信義路4段265巷2號7樓,大安區,信義路
安瑟美膚整形外科診所,121.5527292,25.03520771,臺北市大安區安和路1段113號2樓之1,大安區,安和路
博恩妍診所,121.5506474,25.04169815,臺北市大安區忠孝東路四段177號12樓,大安區,忠孝東路
安和婦產科診所,121.5523465,25.03478137,臺北市大安區安和路一段86號2樓,大安區,安和路
陽光美診所,121.5568721,25.04114215,臺北市大安區忠孝東路4段312號2樓、2樓之1,大安區,忠孝東路
哈曼整合醫學診所,121.557357,25.04155944,臺北市大安區忠孝東路四段341號11樓之1,大安區,忠孝東路
百靈診所,121.5434923,25.03951708,臺北市大安區復興南路1段204號5樓之1,大安區,復興南路
優爾視眼科診所,121.5493431,25.03582711,臺北市大安區敦化南路一段283號2樓、2樓之1,大安區,敦化南路
李細祥內科診所,121.5459068,25.02656913,臺北市大安區四維路198巷30弄5號,大安區,四維路
聖緹雅醫美整形外科診所,121.5497531,25.03833674,臺北市大安區仁愛路4段107號6樓,大安區,仁愛路
御美診所,121.5508383,25.03810513,臺北市大安區仁愛路4段137號4樓之2,大安區,仁愛路
環球診所,121.5298047,25.03354379,臺北市大安區信義路二段184號4樓,大安區,信義路
米漾診所,121.5432714,25.03318187,臺北市大安區信義路3段200號12樓,大安區,信義路
樂康美診所,121.5484931,25.04268354,臺北市大安區敦化南路1段188號9樓,大安區,敦化南路
愛玩美診所,121.5438438,25.03401377,臺北市大安區復興南路一段321號2樓,大安區,復興南路
福康診所,121.5412672,25.0418463,臺北市大安區忠孝東路三段247之1號3樓,大安區,忠孝東路
林瑞祥教授診所,121.532511,25.03328779,臺北市大安區新生南路二段2號6樓之2,大安區,新生南路
凡登斐麗診所,121.542145,25.0336233,臺北市大安區信義路3段149號3樓、149號3樓之1,大安區,信義路
毛爵生髮診所,121.5533731,25.04121378,臺北市大安區忠孝東路4段220號3樓、218之5號5樓,大安區,忠孝東路
睿醫診所,121.549817,25.03988274,臺北市大安區忠孝東路4段170巷18弄18號2樓之1,大安區,忠孝東路
秀冠植髮診所,121.5507625,25.03342462,臺北市大安區信義路四段181號6樓,大安區,信義路
童話時尚診所,121.5479189,25.03308638,臺北市大安區信義路4段98號、98之1號,大安區,信義路
超越復健診所,121.5237198,25.02588378,臺北市大安區羅斯福路二段81巷1號3、4、5樓,大安區,羅斯福路
謝婦產科診所,121.5558017,25.0415936,臺北市大安區忠孝東路四段311號3樓之1,大安區,忠孝東路
張涵郁診所,121.5573845,25.03659357,臺北市大安區光復南路416號,大安區,光復南路
君綺診所,121.5445363,25.0414022,臺北市大安區忠孝東路4段30號9樓、10樓,大安區,忠孝東路
璞之妍診所,121.5502336,25.03955037,臺北市大安區安和路1段21巷5號、敦化南路1段233巷13號,大安區,安和路
尚緹診所,121.5491594,25.03302417,臺北市大安區敦化南路二段1號5樓,大安區,敦化南路
韓風時尚整形外科診所,121.5525126,25.04166246,臺北市大安區忠孝東路四段219號9樓,大安區,忠孝東路
富盈診所,121.5542628,25.02629187,臺北市大安區基隆路2段172之1號2樓、2樓之1、2樓之2、2樓之3、3樓、3樓之1、3樓之2、3樓之3、3樓之4,大安區,基隆路
安諾診所,121.5513115,25.04126795,臺北市大安區忠孝東路4段176之1號6樓,大安區,忠孝東路
韓佳人診所,121.5474267,25.04126744,臺北市大安區忠孝東路4段122之1號(實際營業地址：2樓),大安區,忠孝東路
和欣視光眼科診所,121.555807,25.02105216,臺北市大安區和平東路3段274號(實際營業地址:1樓、地下層),大安區,和平東路
時尚元素診所,121.5555368,25.02721368,臺北市大安區基隆路2段164號2樓,大安區,基隆路
藝群忠孝診所,121.5479987,25.0413348,臺北市大安區忠孝東路四段128號10樓,大安區,忠孝東路
普京全方位醫學診所,121.5444782,25.03616298,臺北市大安區東豐街13號,大安區,東豐街
悠美診所,121.5443843,25.04183689,臺北市大安區忠孝東路4段15號6樓、6樓之3,大安區,忠孝東路
敦南諾貝爾眼科診所,121.5484703,25.04120157,臺北市大安區敦化南路1段216號3樓,大安區,敦化南路
衣絜時尚美學診所,121.5441457,25.03767252,臺北市大安區仁愛路四段四號2樓,大安區,仁愛路
大安聚英視光眼科診所,121.5270591,25.03382206,臺北市大安區金山南路2段2號3樓,大安區,金山南路
超美診所,121.5514031,25.04126477,臺北市大安區忠孝東路4段178號9樓,大安區,忠孝東路
李台生皮膚科診所,121.557357,25.04155944,臺北市大安區忠孝東路4段341號10樓,大安區,忠孝東路
緻妍國際醫學美容診所,121.5378076,25.04104101,臺北市大安區建國南路1段165號(3樓),大安區,建國南路
愛家自然診所,121.5369766,25.04106187,臺北市大安區建國南路1段160號6樓,大安區,建國南路
適安復健科診所,121.5393661,25.0329617,臺北市大安區信義路三段134巷2之1號、建國南路二段11巷39號,大安區,信義路
大心診所,121.552614,25.04217649,臺北市大安區忠孝東路4段205巷7弄13號2樓,大安區,忠孝東路
嘉速美整形外科醫美診所,121.5480756,25.0413345,臺北市大安區忠孝東路4段130號3樓,大安區,忠孝東路
欣昇復健科診所,121.5438565,25.03549732,臺北市大安區復興南路一段283號,大安區,復興南路
星美妍國際醫美診所,121.5474119,25.04104662,臺北市大安區忠孝東路4段120之15號(3樓),大安區,忠孝東路
樂奕診所,121.5455386,25.03872339,臺北市大安區大安路1段144巷5號,大安區,大安路
淨妍醫美診所,121.5527643,25.04122997,臺北市大安區忠孝東路4段212號4樓之1,大安區,忠孝東路
樂沐時尚診所,121.5543376,25.03100587,臺北市大安區通化街35號,大安區,通化街
忠孝美麗爾診所,121.5484703,25.04120157,臺北市大安區敦化南路1段216號6樓,大安區,敦化南路
亞妮詩整形外科診所,121.5533381,25.04119132,臺北市大安區忠孝東路4段218之1號13樓,大安區,忠孝東路
琍百嘉診所,121.5483706,25.02521912,臺北市大安區敦化南路2段152號3樓,大安區,敦化南路
尚行美耳鼻喉專科診所,121.5573792,25.03939031,臺北市大安區光復南路288號3樓之1、4樓之3,大安區,光復南路
夏娃診所,121.5282075,25.02396553,臺北市大安區師大路68巷2號2樓,大安區,師大路
台北生髮診所,121.5446731,25.04110113,臺北市大安區忠孝東路4段69之5號、77巷15號2樓、大安路1段75巷21號2樓,大安區,忠孝東路
和平婦產科診所,121.5295934,25.02621655,臺北市大安區和平東路1段180號5樓,大安區,和平東路
華育婦產科診所,121.5491845,25.03165991,臺北市大安區敦化南路二段39號12樓之1,大安區,敦化南路
時尚假期醫美診所,121.5434877,25.03923656,臺北市大安區復興南路1段222號5樓,大安區,復興南路
佳思優整形醫美診所,121.5329763,25.03527775,臺北市大安區新生南路1段153號2樓、2樓之1,大安區,新生南路
金惍醫美診所,121.5483666,25.04098312,臺北市大安區敦化南路1段228號5樓,大安區,敦化南路
教主診所,121.523047,25.02684652,臺北市大安區和平東路1段6號6樓、6樓之1,大安區,和平東路
凱妍診所,121.5479987,25.0413348,臺北市大安區忠孝東路4段128號8樓,大安區,忠孝東路
安民家庭醫學科診所,121.5462775,25.04253496,臺北市大安區大安路1段65號2樓之1,大安區,大安路
璞美整形外科醫美診所,121.5434877,25.03923656,臺北市大安區復興南路1段222號6樓,大安區,復興南路
煥儷美形仁愛診所,121.5440605,25.03767283,臺北市大安區仁愛路4段2號8樓,大安區,仁愛路
蜜絲歐妮整形外科診所,121.5531181,25.04164375,臺北市大安區忠孝東路4段231號3樓,大安區,忠孝東路
樂芙美形診所,121.5505006,25.0412823,臺北市大安區忠孝東路4段166號8樓之1,大安區,忠孝東路
全新大安診所,121.5470497,25.04012018,臺北市大安區大安路1段101巷10號4樓,大安區,大安路
欣莘時尚美學診所,121.5531012,25.04317132,臺北市大安區忠孝東路4段223巷38號2樓,大安區,忠孝東路
天美診所,121.5433274,25.03094719,臺北市大安區復興南路二段82號3樓,大安區,復興南路
采欣醫美診所,121.5513463,25.04126615,臺北市大安區忠孝東路4段176號10樓,大安區,忠孝東路
維納斯時尚診所,121.5273859,25.03377853,臺北市大安區金山南路2段3號3樓,大安區,金山南路
多娜台北植髮診所,121.5410606,25.03321835,臺北市大安區信義路三段158號3樓,大安區,信義路
安妍善醫學診所,121.557175,25.04441452,臺北市大安區光復南路72巷7弄9號,大安區,光復南路
新復生診所,121.551546,25.04064108,臺北市大安區仁愛路4段151巷38號2樓,大安區,仁愛路
羅丹診所,121.5568721,25.04114215,臺北市大安區忠孝東路4段312號12樓、12樓之1、12樓之2、12樓之3、12樓之4,大安區,忠孝東路
樂力適診所,121.5435422,25.0418867,臺北市大安區忠孝東路3段305號4樓,大安區,忠孝東路
再生診所,121.5315891,25.0330681,臺北市大安區永康街7巷18號,大安區,永康街
漫雲思境診所,121.5427167,25.0289038,臺北市大安區瑞安街61巷1弄5號,大安區,瑞安街
健全醫美診所,121.5422302,25.03363136,臺北市大安區信義路三段151號4樓,大安區,信義路
仁愛星和診所,121.5574369,25.03890998,臺北市大安區光復南路306號2樓、2樓之2,大安區,光復南路
麗波永康國際診所,121.5296862,25.03355994,臺北市大安區信義路2段178號(4樓、5樓),大安區,信義路
曼星整形醫美診所,121.5453834,25.03314658,臺北市大安區信義路四段58號3樓之2、3樓之3、4樓之2,大安區,信義路
享艾美時尚診所,121.5564578,25.04036625,臺北市大安區光復南路260巷24號4樓,大安區,光復南路
康博診所,121.5439129,25.03853238,臺北市大安區復興南路1段227號5樓,大安區,復興南路
麗水診所,121.5273859,25.03377853,臺北市大安區金山南路2段3號5樓、6樓,大安區,金山南路
敦力診所,121.5483376,25.02442806,臺北市大安區敦化南路二段164號2樓、2樓之1、2樓之2、2樓之3,大安區,敦化南路
恆美診所,121.5527643,25.04122997,臺北市大安區忠孝東路4段212號5樓,大安區,忠孝東路
巴比侖診所,121.549153,25.03282549,臺北市大安區敦化南路2段5號3樓之2、3樓之3,大安區,敦化南路
永茂忠孝診所,121.5531181,25.04164375,臺北市大安區忠孝東路4段231號6樓之1、6樓之2,大安區,忠孝東路
大安眼科診所,121.5332947,25.02601603,臺北市大安區和平東路1段258號,大安區,和平東路
大安身心診所,121.5361528,25.02563702,臺北市大安區和平東路2段18之9號,大安區,和平東路
海亞大健康管理診所,121.553932,25.04120422,臺北市大安區忠孝東路4段230號6樓,大安區,忠孝東路
模力診所,121.5492521,25.03677648,臺北市大安區敦化南路1段259號5樓,大安區,敦化南路
美迪婦產科診所,121.5410606,25.03321835,臺北市大安區信義路三段158號2樓,大安區,信義路
國際整形外科診所,121.5458064,25.04179209,臺北市大安區忠孝東路4段59號5樓之2、之3,大安區,忠孝東路
靚優健康醫學美容診所,121.5476627,25.04108639,臺北市大安區忠孝東路4段126之6號（A座6樓）,大安區,忠孝東路
敦南悠美診所,121.5475192,25.04120306,臺北市大安區忠孝東路四段124之2號(3樓),大安區,忠孝東路
台北都蘭診所,121.5430061,25.03319037,臺北市大安區信義路三段192號5樓,大安區,信義路
原綺診所,121.5273859,25.03377853,臺北市大安區金山南路2段3號10樓,大安區,金山南路
台北亞緻整形外科診所,121.5440605,25.03767283,臺北市大安區仁愛路4段2號5樓,大安區,仁愛路
久留美診所,121.5438761,25.03691763,臺北市大安區復興南路1段249號3樓,大安區,復興南路
大師美學診所,121.5434923,25.03951708,臺北市大安區復興南路1段204號3樓之1、3樓之2,大安區,復興南路
信禾診所,121.554798,25.03334284,臺北市大安區信義路4段281號2樓,大安區,信義路
成長空間診所,121.5463965,25.04065734,臺北市大安區敦化南路一段236巷29號,大安區,敦化南路
元晨診所,121.544042,25.04184178,臺北市大安區忠孝東路四段1號9樓,大安區,忠孝東路
耐斯診所,121.5484703,25.04120157,臺北市大安區敦化南路一段216號11樓,大安區,敦化南路
三豐診所,121.5341917,25.0337726,臺北市大安區信義路3段23號、23號2樓,大安區,信義路
米羅美漾診所,121.5509017,25.0416893,臺北市大安區忠孝東路4段183號8樓之4,大安區,忠孝東路
A ONE 高階鼻美型診所,121.5319308,25.01737298,臺北市大安區羅斯福路3段309號3樓之2,大安區,羅斯福路
比鼻八千代診所,121.5434965,25.03969162,臺北市大安區復興南路一段200號5樓、5樓之1,大安區,復興南路
台北孟德爾診所,121.5484703,25.04120157,臺北市大安區敦化南路一段216號8樓、216號10樓,大安區,敦化南路
里約診所,121.5472419,25.04135282,臺北市大安區忠孝東路四段120之8號,大安區,忠孝東路
葛鎂診所,121.5438845,25.03720845,臺北市大安區復興南路1段243號3樓之1,大安區,復興南路
樂活診所,121.5282699,25.02568141,臺北市大安區師大路12號(實際營業地址：1樓、3樓),大安區,師大路
愛群兒童成長診所,121.5420014,25.0331509,臺北市大安區信義路三段170號2樓、170號2樓之1、172號2樓、172號2樓之1,大安區,信義路
大安?眼明眼科診所,121.544057,25.04372147,臺北市大安區復興南路1段103號2樓之1,大安區,復興南路
安東診所,121.5414731,25.02493618,臺北市大安區和平東路2段98之1號,大安區,和平東路
紐約整形外科診所,121.54924,25.04103817,臺北市大安區敦化南路1段219號3樓,大安區,敦化南路
甯寓美學診所,121.5304154,25.03319276,臺北市大安區信義路2段198巷5號（1、2樓）,大安區,信義路
忠孝陽光燦亮診所,121.5513115,25.04126795,臺北市大安區忠孝東路四段176之1號11樓,大安區,忠孝東路
聖諦亞健康管理診所,121.5497749,25.03829915,臺北市大安區仁愛路四段109號3樓,大安區,仁愛路
君綺忠孝診所,121.5445363,25.0414022,臺北市大安區忠孝東路四段30號5樓、6樓,大安區,忠孝東路
陽光燦亮診所,121.5505006,25.0412823,臺北市大安區忠孝東路四段166號7樓之3,大安區,忠孝東路
聖緹雅醫美皮膚科診所,121.5497531,25.03833674,臺北市大安區仁愛路四段107號13樓,大安區,仁愛路
幻顏神話診所,121.5483558,25.04133342,臺北市大安區忠孝東路四段134號8樓,大安區,忠孝東路
星媺診所,121.5468475,25.04135697,臺北市大安區忠孝東路四段112號12樓之13,大安區,忠孝東路
睿珂診所,121.5458436,25.03820973,臺北市大安區仁愛路四段33號6樓,大安區,仁愛路
忠孝安媞婦產科診所,121.5458064,25.04179209,臺北市大安區忠孝東路4段59號7樓之4,大安區,忠孝東路
菲芃時尚醫美診所,121.5222729,25.027618,臺北市大安區羅斯福路2段41號7樓之2,大安區,羅斯福路
雅偲整形外科診所,121.5535874,25.0412125,臺北市大安區忠孝東路四段222號5樓、224號5樓,大安區,忠孝東路
法瑞爾醫美診所,121.5454341,25.04181222,臺北市大安區忠孝東路4段53之8號 (實際營業地址:9樓),大安區,忠孝東路
美加仁愛醫美診所,121.5439129,25.03853238,臺北市大安區復興南路一段227號4樓,大安區,復興南路
賽爾拉雅特時尚診所,121.5501775,25.03581641,臺北市大安區仁愛路4段122巷26號(含地下1樓),大安區,仁愛路
微媞時尚診所,121.5542159,25.04120263,臺北市大安區忠孝東路四段250號2樓及2樓之6,大安區,忠孝東路
皇珈美學診所,121.5563898,25.03945031,臺北市大安區光復南路290巷28號,大安區,光復南路
芮禾診所,121.5461662,25.03875661,臺北市大安區大安路一段133號5樓,大安區,大安路
丰緹絲醫美診所,121.5460007,25.04116058,臺北市大安區大安路一段80號、80號2樓,大安區,大安路
名杏診所,121.5526974,25.03432684,臺北市大安區安和路1段133號3樓,大安區,安和路
宏康復健專科診所,121.5497699,25.03306028,臺北市大安區信義路4段134號及134號2樓,大安區,信義路
秀寧診所,121.5568623,25.04311217,臺北市大安區光復南路116巷1號5樓、3號5樓、5號5樓(實際營業地址：6樓),大安區,光復南路
首席時尚敦南醫美診所,121.5475745,25.04101229,臺北市大安區忠孝東路四段126之18號6樓,大安區,忠孝東路
容華診所,121.54924,25.04103817,臺北市大安區敦化南路一段219號5樓,大安區,敦化南路
女神時尚診所,121.5568493,25.04157207,臺北市大安區忠孝東路4段329號7樓之1,大安區,忠孝東路
澤風雅全方位診所,121.5440207,25.04238637,臺北市大安區復興南路1段137號6樓之8,大安區,復興南路
莎斐爾整形外科診所,121.5468565,25.04186373,臺北市大安區忠孝東路4段71之2號(3樓)、73之2號(3樓),大安區,忠孝東路
京澤時尚診所,121.5533731,25.04121378,臺北市大安區忠孝東路四段220號4樓,大安區,忠孝東路
櫟安診所,121.5259625,25.0279284,臺北市大安區金山南路2段200號11樓,大安區,金山南路
頂好預防醫學診所,121.5458064,25.04179209,臺北市大安區忠孝東路4段59號6樓之3,大安區,忠孝東路
立澄診所,121.5420603,25.0418429,臺北市大安區忠孝東路3段259號3樓,大安區,忠孝東路
仁愛好日子診所,121.5334884,25.03973026,臺北市大安區仁愛路3段5巷3之2號,大安區,仁愛路
伊勢美診所,121.5275338,25.03385213,臺北市大安區信義路2段104號6樓,大安區,信義路
北秀醫美健康管理診所,121.5568623,25.04311217,臺北市大安區光復南路116巷1號6樓、3號6樓、5號6樓 (實際營業地址：7樓),大安區,光復南路
寶泫診所,121.5558017,25.0415936,臺北市大安區忠孝東路4段311號2樓之2,大安區,忠孝東路
日本元氣診所,121.5528167,25.03998564,臺北市大安區忠孝東路4段216巷32弄1號2樓之1,大安區,忠孝東路
幸福婦產科診所,121.5537779,25.04162081,臺北市大安區忠孝東路4段235號12樓,大安區,忠孝東路
初樂極緻美學診所,121.5453993,25.03989938,臺北市大安區大安路1段116巷9號,大安區,大安路
八千代診所,121.5470497,25.04012018,臺北市大安區大安路1段101巷10號3樓,大安區,大安路
金貞醫學美容診所,121.5385018,25.04440611,臺北市大安區市民大道3段198號11樓,大安區,市民大道
甯之美整型診所,121.5438082,25.0337605,臺北市大安區復興南路1段323號4樓,大安區,復興南路
膚適美診所,121.5457604,25.04137255,臺北市大安區忠孝東路4段76號6樓之4、8樓之4,大安區,忠孝東路
藏琢診所,121.5368137,25.03464495,臺北市大安區新生南路1段161巷37號,大安區,新生南路
吳致毅牙醫診所,121.5432337,25.02386506,臺北市大安區復興南路二段２９２號２樓,大安區,復興南路
金華牙醫診所,121.5267806,25.03007514,臺北市大安區金華街１１８號－６三樓,大安區,金華街
蔡牙醫診所,121.5473472,25.03593342,臺北市大安區東豐街５６號,大安區,東豐街
天仁牙醫診所,121.5515301,25.02672512,臺北市大安區樂利路３８號,大安區,樂利路
泰仁牙醫診所,121.5558775,25.03802935,臺北市大安區仁愛路四段４０７－２號,大安區,仁愛路
天祥牙醫診所,121.5565686,25.03638843,臺北市大安區光復南路４２０巷７號,大安區,光復南路
龍泉牙醫診所,121.52681,25.02216748,臺北市大安區羅斯福路三段１１７號,大安區,羅斯福路
名祥牙醫診所,121.5448501,25.03854793,臺北市大安區仁愛路四段２７巷４弄６號,大安區,仁愛路
樺慶牙醫診所,121.555184,25.04266237,臺北市大安區延吉街１３１巷２０號,大安區,延吉街
曾安牙醫診所,121.5574369,25.03890998,臺北市大安區光復南路３０６號３樓－１,大安區,光復南路
保仁牙醫診所,121.5298109,25.01971593,臺北市大安區羅斯福路三段２２７號３樓,大安區,羅斯福路
椰林牙醫診所,121.5315279,25.03342742,臺北市大安區信義路二段２２６號３樓,大安區,信義路
及人牙醫診所,121.5459181,25.0366748,臺北市大安區大安路一段１７０號２樓－１,大安區,大安路
麗水牙醫診所,121.5284512,25.03022465,臺北市大安區金華街１９９巷１弄８號,大安區,金華街
金翎牙醫診所,121.5283889,25.02202401,臺北市大安區師大路１２１號,大安區,師大路
倫泰牙醫診所,121.5289106,25.02992214,臺北市大安區金華街２１５號,大安區,金華街
翔麟牙醫診所,121.5298949,25.01937878,臺北市大安區羅斯福路三段二四一號二樓二樓之一,大安區,羅斯福路
聖心牙醫診所,121.5548106,25.03975072,臺北市大安區延吉街１４０號２樓,大安區,延吉街
建豐牙醫診所,121.5304161,25.02340145,臺北市大安區雲和街７６－１號,大安區,雲和街
泰福牙醫診所,121.5305032,25.02229615,臺北市大安區泰順街６０巷8號3樓,大安區,泰順街
宗翰牙醫診所,121.5565938,25.01997288,臺北市大安區富陽街１０４號,大安區,富陽街
上鵬牙醫診所,121.5272966,25.0217536,臺北市大安區羅斯福路三段１４９號２樓－２,大安區,羅斯福路
新象牙醫診所,121.5404014,25.02548655,臺北市大安區和平東路二段１１１號２樓,大安區,和平東路
榮愛牙醫診所,121.5541658,25.04309938,臺北市大安區延吉街１０９號,大安區,延吉街
愛育牙醫診所,121.5439973,25.0265944,臺北市大安區復興南路2段193巷7號,大安區,復興南路
