type,properties.bsm_bussto,properties.bsm_chines,geometry.type,geometry.coordinates,經度,緯度,地址,市,行政區域
Feature,18077.0,大度立德路口,Point,"121.47095010059569, 25.123118364817024",121.47095010059569,25.123118364817024,台灣台北市北投區大度立德路口,台北市,北投區
Feature,2420.0,政大御花園,Point,"121.58726642785035, 24.985656492705512",121.58726642785037,24.985656492705512,台灣台北市文山區政大御花園,台北市,文山區
Feature,5001.0,富德里,Point,"121.59592044630422, 25.004216561659135",121.59592044630422,25.00421656165913,台灣台北市文山區富德里,台北市,文山區
Feature,1726.0,舊莊公園,Point,"121.62089469444997, 25.041070559250997",121.62089469444996,25.041070559250997,台灣台北市南港區舊莊公園(宜興街口),台北市,南港區
Feature,1000152.0,舊莊站,Point,"121.62293320733995, 25.038506816257975",121.62293320733995,25.038506816257968,台灣台北市南港區舊莊,台北市,南港區
Feature,35.0,關渡,Point,"121.46523, 25.12488",121.46523,25.124879999999997,台灣台北市北投區關渡,台北市,北投區
Feature,18076.0,關渡,Point,"121.46501707415095, 25.123382320859385",121.46501707415095,25.123382320859385,台灣台北市北投區關渡,台北市,北投區
Feature,546.0,關渡站,Point,"121.46996, 25.12217",121.46996000000001,25.12217,台灣台北市北投區知行路112號,台北市,北投區
Feature,2028.0,101國際購物中心,Point,"121.56528624333055, 25.03421075358973",121.56528624333056,25.03421075358973,台灣台北市信義區101國際購物中心,台北市,信義區
Feature,350.0,48號公園,Point,"121.51220691787995, 25.142618161451015",121.51220691787995,25.14261816145101,台灣台北市北投區珠海路186號,台北市,北投區
Feature,4167.0,8號水門,Point,"121.53972071036998, 25.07365103518897",121.53972071036999,25.07365103518897,台灣台北市中山區八號水門,台北市,中山區
Feature,4168.0,8號水門,Point,"121.54003237173997, 25.073556959763984",121.54003237173995,25.073556959763984,台灣台北市中山區台北市中山區大佳里,台北市,中山區
Feature,1847.0,一女中(公園),Point,"121.51496271163997, 25.038007823005998",121.51496271163995,25.038007823006,台灣台北市中正區一女中(公園),台北市,中正區
Feature,6713.0,一女中(公園),Point,"121.51513659515608, 25.036828535730784",121.51513659515608,25.036828535730788,台灣台北市中正區一女中(公園),台北市,中正區
Feature,1000628.0,一女中(重慶),Point,"121.51282376648415, 25.037670126939503",121.51282376648416,25.037670126939503,台灣台北市中正區一女中(重慶),台北市,中正區
Feature,4611.0,一女中(貴陽),Point,"121.51448091421602, 25.038764587941536",121.51448091421602,25.038764587941536,台灣台北市中正區一女中(貴陽),台北市,中正區
Feature,4612.0,一女中(貴陽),Point,"121.51453506277763, 25.038611450868412",121.51453506277764,25.038611450868412,台灣台北市中正區一女中(貴陽),台北市,中正區
Feature,3972.0,一德街口,Point,"121.46868224536998, 25.128289441603965",121.46868224536999,25.128289441603965,台灣台北市北投區中央北路四段507號,台北市,北投區
Feature,199.0,一德街口,Point,"121.46845889681997, 25.128362140338947",121.46845889681995,25.12836214033895,台灣台北市北投區中央北路四段509號,台北市,北投區
Feature,50524.0,七星山,Point,"121.54291, 25.17979",121.54291,25.17979,台灣台北市北投區百拉卡公路入口,台北市,北投區
Feature,4740.0,七海文化園區,Point,"121.53723973281997, 25.07772762865598",121.53723973281996,25.077727628655982,台灣台北市中山區北安路305號,台北市,中山區
Feature,1848.0,二二八和平公園,Point,"121.51244235506095, 25.042335690161153",121.51244235506095,25.042335690161156,台灣台北市中正區衡陽路41號,台北市,中正區
Feature,1000979.0,二二八紀念館,Point,"121.51391, 25.03076",121.51391000000001,25.03076,台灣台北市中正區重慶南路二段70巷13號,台北市,中正區
Feature,1733.0,人壽一村,Point,"121.48933711638998, 25.032065218778033",121.48933711638998,25.032065218778033,台灣台北市萬華區長順街44號,台北市,萬華區
Feature,1001234.0,人壽一村,Point,"121.48951770898995, 25.032073469655955",121.48951770898995,25.032073469655952,台灣台北市萬華區長順街105號,台北市,萬華區
Feature,1000409.0,八勝園,Point,"121.51167916336998, 25.141255281051013",121.51167916336998,25.141255281051013,台灣台北市北投區泉源路55號,台北市,北投區
Feature,8.0,八勝園,Point,"121.51170101851997, 25.141390542430027",121.51170101851996,25.141390542430027,台灣台北市北投區泉源路55號,台北市,北投區
Feature,1168.0,八德市場,Point,"121.5373, 25.0446",121.5373,25.0446,台灣台北市大安區市民大道四段180號,台北市,大安區
Feature,1001122.0,八德市場,Point,"121.53767, 25.04487",121.53766999999999,25.04487,台灣台北市中山區市民大道5號,台北市,中山區
Feature,1488.0,八德敦化路口,Point,"121.54874, 25.04864",121.54874,25.04864,台灣台北市松山區八德敦化路口,台北市,松山區
Feature,2362.0,力行國小,Point,"121.5602830067166, 24.981611615429788",121.56028300671659,24.981611615429788,台灣台北市文山區木新路三段183號,台北市,文山區
Feature,1000554.0,力行國小,Point,"121.55978393242218, 24.981380265780075",121.55978393242218,24.98138026578007,台灣台北市文山區力行國小,台北市,文山區
Feature,9443.0,力行新城,Point,"121.53808801719997, 25.08354023551698",121.53808801719995,25.08354023551698,台灣台北市中山區通北街109號,台北市,中山區
Feature,1.0,十八份,Point,"121.52316, 25.15045",121.52316,25.15045,台灣台北市北投區十八份,台北市,北投區
Feature,5015.0,十八份,Point,"121.523, 25.15034",121.523,25.15034,台灣台北市北投區十八份,台北市,北投區
Feature,2.0,十八份福德宮,Point,"121.52225, 25.14767",121.52225,25.14767,台灣台北市北投區十八份福德宮,台北市,北投區
Feature,1001313.0,十八份福德宮,Point,"121.5223, 25.147905",121.5223,25.147904999999998,台灣台北市北投區十八份福德宮,台北市,北投區
Feature,6.0,十信高中(大業),Point,"121.4961536392592, 25.13390226891671",121.4961536392592,25.13390226891671,台灣台北市北投區大業路514號,台北市,北投區
Feature,4.0,十信高中(大業),Point,"121.49680663417114, 25.13571823360099",121.49680663417114,25.13571823360099,台灣台北市北投區幼華高中(大業),台北市,北投區
Feature,5.0,十信高中(北投),Point,"121.49676452945961, 25.134217114894803",121.4967645294596,25.134217114894806,台灣台北市北投區幼華高中(北投),台北市,北投區
Feature,1851.0,三元南海路口,Point,"121.50912201223998, 25.029292196934",121.50912201223998,25.029292196933998,台灣台北市中正區三元街56號,台北市,中正區
Feature,1001446.0,三元南海路口,Point,"121.50928983928996, 25.029331534075983",121.50928983928995,25.029331534075986,台灣台北市中正區三元街73號,台北市,中正區
Feature,1849.0,三元街,Point,"121.51336256216996, 25.027473281808998",121.51336256216996,25.027473281809,台灣台北市中正區三元街244號,台北市,中正區
Feature,20400.0,三元街,Point,"121.51256, 25.02767",121.51256000000001,25.02767,台灣台北市中正區三元街,台北市,中正區
Feature,4621.0,三元街口,Point,"121.50861226256998, 25.029297",121.50861226256998,25.029297,台灣台北市中正區南海路75號,台北市,中正區
Feature,1850.0,三元街口,Point,"121.50914390674997, 25.029839198674946",121.50914390674996,25.029839198674946,台灣台北市中正區三元街口,台北市,中正區
Feature,1001349.0,三王宮,Point,"121.50524704957996, 25.099520457023008",121.50524704957995,25.09952045702301,台灣台北市北投區洲美街123號,台北市,北投區
Feature,7203.0,三王宮,Point,"121.50602, 25.09915",121.50601999999999,25.09915,台灣台北市北投區洲美街99號,台北市,北投區
Feature,1489.0,三民健康路口,Point,"121.56359671022128, 25.055197807638255",121.56359671022129,25.05519780763825,台灣台北市松山區三民路33號,台北市,松山區
Feature,50006.0,三民健康路口,Point,"121.56390089112475, 25.054771866817617",121.56390089112476,25.054771866817614,台灣台北市松山區三民路64號,台北市,松山區
Feature,8671.0,三民國小,Point,"121.56388479887417, 25.0627725319866",121.56388479887416,25.062772531986603,台灣台北市松山區民權東路五段18號,台北市,松山區
Feature,10403.0,三民國小,Point,"121.5640673534532, 25.063129416542175",121.5640673534532,25.06312941654217,台灣台北市松山區三民國小,台北市,松山區
Feature,966.0,三民國中,Point,"121.58540574354996, 25.06880357635298",121.58540574354996,25.068803576352984,台灣台北市內湖區民權東路六段74號,台北市,內湖區
Feature,8666.0,三民國中,Point,"121.58562333676863, 25.069101792469297",121.58562333676865,25.069101792469297,台灣台北市內湖區三民國中,台北市,內湖區
Feature,10404.0,三民路,Point,"121.56361014405653, 25.057732013266307",121.56361014405651,25.05773201326631,台灣台北市松山區三民路,台北市,松山區
Feature,1492.0,三民路,Point,"121.56333014405656, 25.0577896334149",121.56333014405656,25.0577896334149,台灣台北市松山區三民路113巷1號,台北市,松山區
Feature,2363.0,三玄宮,Point,"121.58791, 24.96818",121.58791000000001,24.96818,台灣台北市文山區指南路三段38巷16-4號,台北市,文山區
Feature,50647.0,三玉宮,Point,"121.53110710548997, 25.118238571568035",121.53110710548997,25.118238571568035,台灣台北市士林區天母東路1-5號,台北市,士林區
Feature,561.0,三玉宮,Point,"121.5311271326276, 25.117994277493786",121.5311271326276,25.117994277493786,台灣台北市士林區天母東路8號,台北市,士林區
Feature,56089.0,三角公園,Point,"121.57994559753998, 24.983509219187997",121.57994559753998,24.983509219187997,台灣台北市文山區指南路三段57號,台北市,文山區
Feature,2365.0,三角公園,Point,"121.57966880488998, 24.98365144624103",121.57966880488999,24.98365144624103,台灣台北市文山區三角公園,台北市,文山區
Feature,1856.0,三軍總醫院,Point,"121.52993225475068, 25.016838685590592",121.52993225475069,25.016838685590592,台灣台北市中正區汀州路三段109號,台北市,中正區
Feature,4758.0,三軍總醫院(辛亥),Point,"121.52802, 25.01912",121.52802,25.01912,台灣台北市中正區辛亥路一段17號,台北市,中正區
Feature,1563.0,三軍總醫院松山分院,Point,"121.55726, 25.05367",121.55726000000001,25.05367,台灣台北市松山區三軍總醫院松山分院,台北市,松山區
Feature,1000021.0,三軍總醫院松山分院,Point,"121.557176, 25.053808",121.557176,25.053808,台灣台北市松山區健康路156號,台北市,松山區
Feature,55005.0,三重里,Point,"121.6111, 25.06052",121.6111,25.06052,台灣台北市南港區三重里,台北市,南港區
Feature,1606.0,三重里,Point,"121.61034, 25.05917",121.61034,25.05917,台灣台北市南港區重陽路12號,台北市,南港區
Feature,50107.0,三重里,Point,"121.6103, 25.05933",121.6103,25.05933,台灣台北市南港區重陽路10號,台北市,南港區
Feature,2032.0,三張犁,Point,"121.55736778553755, 25.034069909202845",121.55736778553756,25.03406990920284,台灣台北市大安區三張犁,台北市,大安區
Feature,2033.0,三張犁,Point,"121.55763528484802, 25.033756576473323",121.55763528484802,25.033756576473323,台灣台北市信義區光復南路471號,台北市,信義區
Feature,975.0,三陽公司,Point,"121.58739215706997, 25.058030652940968",121.58739215706996,25.05803065294097,台灣台北市內湖區新明路239號,台北市,內湖區
Feature,50431.0,三陽公司,Point,"121.58746950429997, 25.058235603362967",121.58746950429995,25.05823560336297,台灣台北市內湖區新明路235號,台北市,內湖區
Feature,1000807.0,三福街口,Point,"121.54099, 24.995846",121.54099,24.995846,台灣台北市文山區羅斯福路六段146-1號,台北市,文山區
Feature,1000808.0,三福街口,Point,"121.54133646875998, 24.995452676504947",121.54133646875998,24.99545267650495,台灣台北市文山區羅斯福路六段237號,台北市,文山區
Feature,1000295.0,三興國小(臨江街觀光夜市),Point,"121.55674897420997, 25.028460766454963",121.55674897420995,25.028460766454963,台灣台北市大安區基隆路二段138號,台北市,大安區
Feature,2035.0,三興國小(臨江街觀光夜市),Point,"121.55719844711571, 25.028773341055654",121.55719844711572,25.02877334105565,台灣台北市信義區基隆路二段113號,台北市,信義區
Feature,980.0,三總內湖站,Point,"121.59223515954997, 25.07176533659603",121.59223515954996,25.07176533659603,台灣台北市內湖區成功路二段325號三軍總醫院一樓,台北市,內湖區
Feature,8677.0,三總內湖站,Point,"121.59222916318996, 25.07182529156901",121.59222916318994,25.071825291569013,台灣台北市內湖區成功路二段325號,台北市,內湖區
Feature,4996.0,三總內湖站(急診部),Point,"121.59382519181996, 25.07080707429498",121.59382519181996,25.070807074294983,台灣台北市內湖區三總內湖站(急診部),台北市,內湖區
Feature,20360.0,上北投,Point,"121.51406, 25.14187",121.51406000000001,25.14187,台灣台北市北投區上北投,台北市,北投區
Feature,18.0,上北投,Point,"121.51386556812997, 25.14187054183901",121.51386556812996,25.141870541839012,台灣台北市北投區上北投,台北市,北投區
Feature,1000811.0,上塔悠,Point,"121.56456841334996, 25.070810088841025",121.56456841334995,25.070810088841025,台灣台北市松山區撫遠街451號,台北市,松山區
Feature,4177.0,上塔悠,Point,"121.56213, 25.07049",121.56213000000001,25.07049,台灣台北市松山區濱江街865號,台北市,松山區
Feature,8663.0,上灣仔,Point,"121.59068881348998, 25.066441266089022",121.59068881348999,25.066441266089026,台灣台北市內湖區成功路二段185號,台北市,內湖區
Feature,985.0,上灣仔,Point,"121.5903586788664, 25.06632791091632",121.59035867886641,25.066327910916318,台灣台北市內湖區成功路二段258號,台北市,內湖區
Feature,20333.0,下七股(花藝村溫泉會館),Point,"121.57349, 25.18414",121.57348999999999,25.18414,台灣台北市士林區下七股(花藝村溫泉會館),台北市,士林區
Feature,1001293.0,下八仙土地公廟,Point,"121.4828, 25.11581",121.4828,25.11581,台灣台北市北投區承德路七段401巷989弄8號,台北市,北投區
Feature,1000612.0,下竹林,Point,"121.54820240081234, 25.128691307769348",121.54820240081234,25.12869130776935,台灣台北市士林區仰德大道四段32巷6-2號,台北市,士林區
Feature,563.0,下竹林,Point,"121.54807718216217, 25.128308862838573",121.54807718216215,25.12830886283857,台灣台北市士林區仰德大道四段32巷2號,台北市,士林區
Feature,3869.0,下竹圍,Point,"121.49333, 25.09816",121.49333,25.09816,台灣台北市士林區下竹圍,台北市,士林區
Feature,565.0,下竹園,Point,"121.49333, 25.0982",121.49333,25.0982,台灣台北市士林區下竹圍,台北市,士林區
Feature,3987.0,下埤里,Point,"121.54269422341876, 25.06746040925422",121.54269422341876,25.067460409254217,台灣台北市中山區民族東路522號,台北市,中山區
Feature,4037.0,下埤里,Point,"121.54245003682043, 25.067839594333776",121.54245003682043,25.067839594333773,台灣台北市中山區民族東路512巷1號,台北市,中山區
Feature,1183.0,下埤里,Point,"121.54138997287997, 25.065992252834036",121.54138997287994,25.06599225283404,台灣台北市中山區復興北路514巷66號,台北市,中山區
Feature,4815.0,下菁礐,Point,"121.56961846388283, 25.135178100809753",121.56961846388285,25.135178100809757,台灣台北市士林區永公路500巷13號,台北市,士林區
Feature,1184.0,下塔悠,Point,"121.55677247947996, 25.072095588987032",121.55677247947996,25.072095588987032,台灣台北市松山區濱江街510號,台北市,松山區
Feature,1000812.0,下塔悠,Point,"121.55648848807998, 25.072403549751993",121.55648848807999,25.072403549751996,台灣台北市松山區濱江街499號,台北市,松山區
Feature,5972.0,下溪沙尾,Point,"121.47884, 25.10597",121.47883999999999,25.105970000000003,台灣台北市士林區延平北路八段262號,台北市,士林區
Feature,601.0,下溪沙尾,Point,"121.47886, 25.10581",121.47886000000001,25.10581,台灣台北市士林區延平北路八段257號,台北市,士林區
Feature,603.0,下過溪,Point,"121.56878457457297, 25.14119676600112",121.56878457457294,25.14119676600112,台灣台北市士林區下過溪,台北市,士林區
Feature,14411.0,下過溪,Point,"121.56886473008953, 25.14092838295138",121.56886473008952,25.14092838295138,台灣台北市士林區下過溪,台北市,士林區
Feature,50108.0,下寮橋,Point,"121.59552, 25.01916",121.59552,25.01916,台灣台北市南港區研究院路四段128號,台北市,南港區
Feature,1608.0,下寮橋,Point,"121.59543, 25.019393",121.59543000000001,25.019393,台灣台北市南港區研究院路四段128號,台北市,南港區
Feature,2367.0,久康街口,Point,"121.56429298575543, 24.98943803770795",121.56429298575544,24.98943803770795,台灣台北市文山區久康街口,台北市,文山區
Feature,50683.0,久康街口,Point,"121.56408180716997, 24.989513530188084",121.56408180716996,24.989513530188084,台灣台北市文山區秀明路一段23號,台北市,文山區
Feature,1000254.0,土地公廟,Point,"121.59579760862997, 25.054499162197015",121.59579760862995,25.05449916219701,台灣台北市南港區南港路二段294號,台北市,南港區
Feature,562.0,土地公廟,Point,"121.56028338517218, 25.149601789990196",121.5602833851722,25.1496017899902,台灣台北市士林區土地公廟,台北市,士林區
Feature,1000270.0,土地公廟,Point,"121.59592423561998, 25.05435963130096",121.59592423561999,25.054359631300958,台灣台北市南港區土地公廟,台北市,南港區
Feature,50519.0,土地公廟,Point,"121.56048672734985, 25.14963943135265",121.56048672734984,25.14963943135265,台灣台北市士林區土地公廟,台北市,士林區
Feature,20269.0,土地銀行,Point,"121.57547127110304, 25.03799682145912",121.57547127110304,25.03799682145912,台灣台北市信義區松德路90號,台北市,信義區
Feature,2031.0,土地銀行,Point,"121.5758, 25.037849",121.5758,25.037848999999998,台灣台北市信義區松德路105號,台北市,信義區
Feature,570.0,士東一巷,Point,"121.52803716917634, 25.115935952926",121.52803716917634,25.115935952926,台灣台北市士林區台北美國/日僑學校,台北市,士林區
Feature,50637.0,士東一巷,Point,"121.52841255610313, 25.116040314107817",121.52841255610313,25.116040314107817,台灣台北市士林區中山北路六段766號,台北市,士林區
Feature,50631.0,士東國小,Point,"121.52598030150583, 25.111460666673818",121.52598030150585,25.111460666673818,台灣台北市士林區中山北路六段338號,台北市,士林區
Feature,584.0,士東國小,Point,"121.52572387939762, 25.11151973129408",121.52572387939762,25.111519731294077,台灣台北市士林區士東國小,台北市,士林區
Feature,587.0,士東路,Point,"121.53677, 25.113458",121.53676999999999,25.113457999999998,台灣台北市士林區士東路,台北市,士林區
Feature,4994.0,士東路,Point,"121.536781, 25.113461",121.536781,25.113460999999997,台灣台北市士林區士東路,台北市,士林區
Feature,569.0,士林,Point,"121.52427938109285, 25.095911889144794",121.52427938109284,25.095911889144798,台灣台北市士林區文林路471號,台北市,士林區
Feature,10209.0,士林,Point,"121.52440530401567, 25.09611143466711",121.52440530401569,25.09611143466711,台灣台北市士林區文林路480號,台北市,士林區
Feature,1001263.0,士林分局,Point,"121.52561186871998, 25.090496208156992",121.52561186871998,25.090496208156985,台灣台北市士林區大東路75號,台北市,士林區
Feature,571.0,士林分局,Point,"121.52580967857998, 25.090617420485984",121.52580967857998,25.090617420485984,台灣台北市士林區大東路80號,台北市,士林區
Feature,573.0,士林市場(銘傳會館),Point,"121.52338693749999, 25.088889393078006",121.5233869375,25.088889393078013,台灣台北市士林區小西街7號,台北市,士林區
Feature,914.0,士林市場(銘傳會館),Point,"121.52362604184488, 25.08816494228725",121.52362604184488,25.08816494228725,台灣台北市士林區士林市場(銘傳會館),台北市,士林區
Feature,576.0,士林官邸(中山),Point,"121.52829, 25.094495",121.52828999999998,25.094495000000002,台灣台北市士林區士林官邸(中山),台北市,士林區
Feature,3953.0,士林官邸(中正),Point,"121.53144, 25.0965",121.53143999999999,25.0965,台灣台北市士林區中正路20號,台北市,士林區
Feature,1000618.0,士林官邸(中正),Point,"121.53139495833996, 25.096323686250965",121.53139495833996,25.09632368625096,台灣台北市士林區士林官邸(中正),台北市,士林區
Feature,4647.0,士林站,Point,"121.51851081943997, 25.09475495522",121.51851081943994,25.094754955220004,台灣台北市士林區基河路368號,台北市,士林區
Feature,580.0,士林高商,Point,"121.51712, 25.09423",121.51711999999999,25.09423,台灣台北市士林區士商路159號,台北市,士林區
Feature,7255.0,士林高商,Point,"121.51714245021998, 25.094373095407985",121.51714245021999,25.094373095407988,台灣台北市士林區士商路159號,台北市,士林區
Feature,575.0,士林區行政中心(中正),Point,"121.52013362928784, 25.093640342252822",121.52013362928786,25.093640342252822,台灣台北市士林區士林區行政中心(中正),台北市,士林區
Feature,581.0,士林區行政中心(中正),Point,"121.51955456297648, 25.09289753513848",121.5195545629765,25.09289753513848,台灣台北市士林區士林區行政中心(中正),台北市,士林區
Feature,50628.0,士林區行政中心(基河),Point,"121.52045463557997, 25.092979671269994",121.52045463557995,25.092979671269994,台灣台北市士林區中正路435巷17號,台北市,士林區
Feature,574.0,士林區行政中心(基河),Point,"121.52040717179997, 25.09264510702497",121.52040717179995,25.09264510702497,台灣台北市士林區士林區行政中心(基河),台北市,士林區
Feature,583.0,士林區農會,Point,"121.52550606381998, 25.09302166825797",121.52550606381998,25.093021668257972,台灣台北市士林區文林路364號,台北市,士林區
Feature,5040.0,士林國小,Point,"121.52475452945963, 25.094137733599364",121.52475452945964,25.09413773359936,台灣台北市士林區士林國小,台北市,士林區
Feature,1000800.0,士林國小,Point,"121.52483, 25.09325",121.52483000000001,25.09325,台灣台北市士林區大東路165號,台北市,士林區
Feature,1000275.0,士林國中,Point,"121.52335423409536, 25.094872607359736",121.52335423409536,25.094872607359733,台灣台北市士林區中正路296號,台北市,士林區
Feature,586.0,士林國中,Point,"121.52329288427629, 25.09462303335703",121.52329288427627,25.094623033357028,台灣台北市士林區中正路323號,台北市,士林區
Feature,589.0,士林電機(中山德行路口),Point,"121.52498761473875, 25.105315689576777",121.52498761473876,25.105315689576774,台灣台北市士林區士林電機(中山德行路口),台北市,士林區
Feature,50633.0,士林電機(中山德行路口),Point,"121.52462955443758, 25.105173448742452",121.52462955443758,25.10517344874245,台灣台北市士林區中山北路六段81號,台北市,士林區
Feature,1000964.0,士林監理站,Point,"121.51421076189996, 25.093005991645022",121.51421076189995,25.093005991645022,台灣台北市士林區通河東街二段70號後港公園,台北市,士林區
Feature,654.0,士林監理站,Point,"121.51406, 25.09515",121.51406000000001,25.09515,台灣台北市士林區士林監理站,台北市,士林區
Feature,3328.0,士林監理站,Point,"121.51462, 25.09512",121.51462,25.09512,台灣台北市士林區士林監理站,台北市,士林區
Feature,50639.0,士林簡易庭,Point,"121.5130535644179, 25.081963708332356",121.51305356441792,25.081963708332356,台灣台北市士林區重慶北路四段74號,台北市,士林區
Feature,591.0,士林簡易庭,Point,"121.51245230923764, 25.082055578051033",121.51245230923763,25.082055578051033,台灣台北市士林區台2乙線77a號,台北市,士林區
Feature,597.0,士商路,Point,"121.51989, 25.091",121.51988999999999,25.090999999999998,台灣台北市士林區士商路,台北市,士林區
Feature,16261.0,大同大學,Point,"121.52398778405997, 25.068578309175994",121.52398778405994,25.068578309175997,台灣台北市中山區中山北路三段181號,台北市,中山區
Feature,1170.0,大同大學,Point,"121.5223970117271, 25.067453323171005",121.52239701172708,25.067453323171005,台灣台北市中山區中山北路三段54號,台北市,中山區
Feature,1169.0,大同大學,Point,"121.52290588825572, 25.067761651316815",121.5229058882557,25.06776165131681,台灣台北市中山區中山北路三段53之1號,台北市,中山區
Feature,1000901.0,大同大學,Point,"121.52426356448997, 25.068343158508036",121.52426356448996,25.06834315850804,台灣台北市中山區民族東路22號,台北市,中山區
Feature,1001316.0,大同之家,Point,"121.52317, 25.146018",121.52317,25.146017999999998,台灣台北市北投區大同之家,台北市,北投區
Feature,20.0,大同之家,Point,"121.52295579726366, 25.145768146834524",121.52295579726366,25.14576814683452,台灣台北市北投區大同之家,台北市,北投區
Feature,1171.0,大同公司(晴光市場),Point,"121.52216206993995, 25.06438114071701",121.52216206993995,25.06438114071701,台灣台北市中山區大同公司(晴光市場),台北市,中山區
Feature,16264.0,大同公司(晴光市場),Point,"121.52247219758998, 25.064288703668016",121.52247219758999,25.064288703668016,台灣台北市中山區大同公司(晴光市場),台北市,中山區
Feature,1000894.0,大同分局,Point,"121.51466338276997, 25.06011011653703",121.51466338276995,25.060110116537032,台灣台北市大同區寧夏路115號,台北市,大同區
Feature,10205.0,大同國小,Point,"121.51853137508613, 25.06629810869054",121.51853137508611,25.06629810869054,台灣台北市大同區大同國小,台北市,大同區
Feature,1401.0,大同國小,Point,"121.51821802438369, 25.06523677622975",121.51821802438369,25.06523677622975,台灣台北市大同區承德路三段58號9號,台北市,大同區
Feature,5059.0,大同街口,Point,"121.49958074183365, 25.13871899994483",121.49958074183365,25.138718999944828,台灣台北市北投區永興路一段8號,台北市,北投區
Feature,21.0,大同街口,Point,"121.49982, 25.13694",121.49982,25.13694,台灣台北市北投區大業路27360號,台北市,北投區
Feature,5060.0,大同街口,Point,"121.4994850487432, 25.138840846221374",121.49948504874321,25.13884084622137,台灣台北市北投區永興路一段3號,台北市,北投區
Feature,6996.0,大安高工,Point,"121.54367794973996, 25.031974697263006",121.54367794973996,25.031974697263013,台灣台北市大安區復興南路二段31號,台北市,大安區
Feature,2183.0,大安高工,Point,"121.54334302446998, 25.03251206564002",121.54334302446999,25.03251206564002,台灣台北市大安區大安高工,台北市,大安區
Feature,1000449.0,大安健康服務中心,Point,"121.54321214555236, 25.022892556299727",121.54321214555237,25.02289255629973,台灣台北市大安區大安健康服務中心,台北市,大安區
Feature,1000447.0,大安健康服務中心,Point,"121.54349966136998, 25.022084556242984",121.54349966136999,25.022084556242987,台灣台北市大安區大安健康服務中心,台北市,大安區
Feature,2186.0,大安國中,Point,"121.54901691157495, 25.029648093115",121.54901691157495,25.029648093115,台灣台北市大安區大安國中,台北市,大安區
Feature,2185.0,大安國中,Point,"121.54839036948698, 25.031330957277387",121.54839036948698,25.03133095727739,台灣台北市大安區敦化南路二段48號,台北市,大安區
Feature,2188.0,大安國宅,Point,"121.53800596196997, 25.029775296008975",121.53800596196994,25.029775296008967,台灣台北市大安區大安國宅,台北市,大安區
Feature,2187.0,大安國宅,Point,"121.53744495700997, 25.02976278732896",121.53744495700994,25.029762787328963,台灣台北市大安區大安國宅,台北市,大安區
Feature,2190.0,大安森林公園,Point,"121.53605846041947, 25.025759626825614",121.53605846041948,25.02575962682561,台灣台北市大安區大安森林公園,台北市,大安區
Feature,2192.0,大安森林公園,Point,"121.53614686892644, 25.026032542948297",121.53614686892642,25.026032542948297,台灣台北市大安區大安森林公園,台北市,大安區
Feature,2271.0,大安運動中心,Point,"121.5458874672628, 25.020324056647738",121.5458874672628,25.020324056647734,台灣台北市大安區大安運動中心,台北市,大安區
Feature,1001309.0,大坑,Point,"121.65421510415997, 25.027504150617975",121.65421510415995,25.02750415061797,台灣台北市南港區舊莊街二段1號,台北市,南港區
Feature,1605.0,大坑,Point,"121.65421947717996, 25.027445669161995",121.65421947717995,25.027445669161995,台灣台北市南港區舊莊街二段1號,台北市,南港區
Feature,5019.0,大坑廟,Point,"121.53802248946997, 25.158714107833998",121.53802248946995,25.158714107834,台灣台北市北投區大坑廟,台北市,北投區
Feature,5018.0,大坑廟,Point,"121.53818143920998, 25.15877208507604",121.53818143920998,25.15877208507604,台灣台北市北投區大坑廟,台北市,北投區
Feature,2194.0,大我新舍,Point,"121.56299906580696, 25.01338770421216",121.56299906580696,25.01338770421216,台灣台北市大安區和平東路三段633號,台北市,大安區
Feature,2193.0,大我新舍,Point,"121.56288766673882, 25.013602757139356",121.56288766673882,25.01360275713936,台灣台北市大安區和平東路三段606號,台北市,大安區
Feature,1000905.0,大佳河濱公園,Point,"121.54383483742899, 25.073906668443946",121.543834837429,25.073906668443946,台灣台北市中山區大佳河濱公園,台北市,中山區
Feature,1000904.0,大佳河濱公園,Point,"121.5440860350478, 25.07391028936211",121.5440860350478,25.07391028936211,台灣台北市中山區大佳河濱公園,台北市,中山區
Feature,1173.0,大佳國小,Point,"121.53638894973997, 25.07244898110598",121.53638894973996,25.072448981105982,台灣台北市中山區大佳國小,台北市,中山區
Feature,1000931.0,大佳國小,Point,"121.53639233250998, 25.072666470502003",121.53639233250998,25.072666470502003,台灣台北市中山區大佳國小,台北市,中山區
Feature,9473.0,大坪尾,Point,"121.57237188473817, 25.123089642287503",121.57237188473816,25.123089642287503,台灣台北市士林區大坪尾,台北市,士林區
Feature,9474.0,大坪尾,Point,"121.57253984634156, 25.122925879740606",121.57253984634157,25.12292587974061,台灣台北市士林區大坪尾,台北市,士林區
Feature,9495.0,大坪尾一,Point,"121.57366, 25.122375",121.57366,25.122375,台灣台北市士林區大坪尾一,台北市,士林區
Feature,568.0,大坪尾一,Point,"121.57361311904997, 25.12219371890299",121.57361311904995,25.122193718902988,台灣台北市士林區大坪尾一,台北市,士林區
Feature,20271.0,大油坑,Point,"121.57583, 25.180748",121.57583000000001,25.180748,台灣台北市士林區台北市士林區,台北市,士林區
Feature,20332.0,大油坑,Point,"121.57579, 25.18082",121.57578999999998,25.18082,台灣台北市士林區台北市士林區,台北市,士林區
Feature,1176.0,大直加油站,Point,"121.55005529488477, 25.083987012921522",121.55005529488476,25.08398701292152,台灣台北市中山區北安路670巷14號,台北市,中山區
Feature,1001024.0,大直加油站,Point,"121.5500084613509, 25.084113547858717",121.5500084613509,25.08411354785872,台灣台北市中山區北安路670巷14號,台北市,中山區
Feature,1177.0,大直抽水站,Point,"121.5455233549154, 25.077529604362176",121.5455233549154,25.077529604362176,台灣台北市中山區大直抽水站,台北市,中山區
Feature,1000226.0,大直站(光華),Point,"121.55380779265995, 25.082607038993963",121.55380779265995,25.082607038993963,台灣台北市中山區樂群三路77號,台北市,中山區
Feature,1179.0,大直高中,Point,"121.54310244618016, 25.07949",121.54310244618016,25.07949,台灣台北市中山區大直高中,台北市,中山區
Feature,9433.0,大直高中,Point,"121.54271298137404, 25.079770384404505",121.54271298137405,25.0797703844045,台灣台北市中山區北安路407號,台北市,中山區
Feature,1180.0,大直國小,Point,"121.54533392147023, 25.0796615184461",121.54533392147025,25.079661518446102,台灣台北市中山區大直國小,台北市,中山區
Feature,1181.0,大直橋,Point,"121.54273, 25.072266",121.54273,25.072266,台灣台北市中山區濱江街252號,台北市,中山區
Feature,1001155.0,大南路口,Point,"121.52228561776305, 25.089551509205908",121.52228561776305,25.089551509205908,台灣台北市士林區大南路口,台北市,士林區
Feature,1000111.0,大南路口,Point,"121.5215607474773, 25.08851915331087",121.52156074747731,25.08851915331087,台灣台北市士林區承德路四段222-1號,台北市,士林區
Feature,593.0,大南路口,Point,"121.52197905919161, 25.088362874666434",121.5219790591916,25.088362874666434,台灣台北市士林區承德路四段227號,台北市,士林區
Feature,4661.0,大度立德路口,Point,"121.47075367205416, 25.122671989413185",121.47075367205416,25.122671989413185,台灣台北市北投區大度路三段185號,台北市,北投區
Feature,1001256.0,大春山莊,Point,"121.56884, 24.96736",121.56884,24.96736,台灣台北市文山區大春山莊,台北市,文山區
Feature,14606.0,大埔(明玄宮),Point,"121.53554046626996, 25.14313402829304",121.53554046626995,25.143134028293037,台灣台北市北投區大埔(明玄宮),台北市,北投區
Feature,1000416.0,大埔(明玄宮),Point,"121.53556840740997, 25.143258396263015",121.53556840740995,25.14325839626301,台灣台北市北投區大埔(明玄宮),台北市,北投區
Feature,4894.0,大埔一,Point,"121.53388, 25.14254",121.53388000000001,25.14254,台灣台北市北投區大埔一,台北市,北投區
Feature,50060.0,大埔一,Point,"121.53385, 25.14257",121.53385,25.142570000000003,台灣台北市北投區大埔一,台北市,北投區
Feature,1737.0,大埔街,Point,"121.50496147197703, 25.032636270339037",121.50496147197704,25.03263627033904,台灣台北市中正區大埔街,台北市,中正區
Feature,4606.0,大埔街,Point,"121.50452047601999, 25.032177821924",121.50452047601999,25.032177821923998,台灣台北市萬華區中華路二段70號,台北市,萬華區
Feature,598.0,大崙尾山,Point,"121.56989626752998, 25.10683944568595",121.56989626752998,25.10683944568595,台灣台北市士林區大崙尾山,台北市,士林區
Feature,50534.0,大崙尾山,Point,"121.56996, 25.10682",121.56996000000001,25.106820000000003,台灣台北市士林區大崙尾山,台北市,士林區
Feature,9405.0,大崙尾山步道口,Point,"121.56776026255997, 25.10601527662901",121.56776026255994,25.106015276629012,台灣台北市士林區大崙尾山步道口,台北市,士林區
Feature,50533.0,大崙尾山步道口,Point,"121.56783122452997, 25.105968710299997",121.56783122452995,25.1059687103,台灣台北市士林區大崙尾山步道口,台北市,士林區
Feature,1738.0,大理服飾,Point,"121.49848, 25.03422",121.49848,25.03422,台灣台北市萬華區大理服飾,台北市,萬華區
Feature,4626.0,大理服飾,Point,"121.49871, 25.03415",121.49871,25.03415,台灣台北市萬華區大理服飾,台北市,萬華區
Feature,1000095.0,大理高中,Point,"121.49132842460999, 25.03191884462402",121.49132842461,25.03191884462402,台灣台北市萬華區環河南路二段213號,台北市,萬華區
Feature,1739.0,大理高中,Point,"121.49138451785997, 25.03235908206599",121.49138451785996,25.032359082065987,台灣台北市萬華區環河南路二段274號,台北市,萬華區
Feature,974.0,大湖,Point,"121.60030116907414, 25.084723830539104",121.60030116907413,25.084723830539108,台灣台北市內湖區大湖,台北市,內湖區
Feature,968.0,大湖,Point,"121.59996574387337, 25.08455251949069",121.59996574387337,25.08455251949069,台灣台北市內湖區成功路四段357號,台北市,內湖區
Feature,50448.0,大湖公園,Point,"121.60530717674528, 25.08301244723754",121.60530717674528,25.08301244723754,台灣台北市內湖區大湖公園,台北市,內湖區
Feature,8524.0,大湖公園,Point,"121.60512423047999, 25.082800342837018",121.60512423048,25.082800342837015,台灣台北市內湖區大湖公園,台北市,內湖區
Feature,1001298.0,大湖國小,Point,"121.59965905025997, 25.088189568811956",121.59965905025996,25.08818956881196,台灣台北市內湖區大湖國小,台北市,內湖區
Feature,20345.0,大湖國小,Point,"121.59934688556999, 25.088239443536025",121.59934688556999,25.088239443536025,台灣台北市內湖區大湖山莊街221號,台北市,內湖區
Feature,1000389.0,大愛電視臺,Point,"121.47131857687195, 25.12363079310781",121.47131857687195,25.12363079310781,台灣台北市北投區立德路1號,台北市,北投區
Feature,36.0,大業中央北路口,Point,"121.49789151653997, 25.135807415708012",121.49789151653995,25.135807415708012,台灣台北市北投區中央北路一段182號,台北市,北投區
Feature,50062.0,大業中央北路口,Point,"121.49802017427997, 25.135596891347994",121.49802017427996,25.135596891347994,台灣台北市北投區大業中央北路口,台北市,北投區
Feature,37.0,大業路一,Point,"121.49924190861661, 25.12237574421853",121.4992419086166,25.12237574421853,台灣台北市北投區大業路37號,台北市,北投區
Feature,40.0,大業路一,Point,"121.49955247562835, 25.122630104799857",121.49955247562836,25.122630104799857,台灣台北市北投區大業路12號,台北市,北投區
Feature,41.0,大業路二,Point,"121.49741430690953, 25.129195662252116",121.49741430690952,25.129195662252123,台灣台北市北投區大業路368號,台北市,北投區
Feature,38.0,大業路二,Point,"121.4967526239951, 25.12981154228607",121.49675262399509,25.12981154228607,台灣台北市北投區大業路(大興街口),台北市,北投區
Feature,39.0,大業路三,Point,"121.49561507204629, 25.13241100319369",121.49561507204628,25.132411003193692,台灣台北市北投區大業路480號,台北市,北投區
Feature,7240.0,大業路三,Point,"121.49646292072858, 25.131225352157433",121.49646292072858,25.131225352157436,台灣台北市北投區大業路450號,台北市,北投區
Feature,9491.0,大經橋,Point,"121.55708, 25.10932",121.55708,25.10932,台灣台北市士林區大經橋,台北市,士林區
Feature,602.0,大經橋,Point,"121.55728, 25.10914",121.55728,25.10914,台灣台北市士林區大經橋,台北市,士林區
Feature,2368.0,大誠高中,Point,"121.57690642557068, 24.99036552579463",121.57690642557068,24.99036552579463,台灣台北市文山區大誠高中,台北市,文山區
Feature,2034.0,大道路,Point,"121.58272874602997, 25.040157677830983",121.58272874602994,25.040157677830983,台灣台北市信義區大道路,台北市,信義區
Feature,1000179.0,大道路,Point,"121.58270273742995, 25.04032160263798",121.58270273742997,25.04032160263798,台灣台北市信義區大道路94號,台北市,信義區
Feature,16251.0,大稻埕碼頭,Point,"121.50783902111998, 25.056642697483955",121.50783902111998,25.056642697483955,台灣台北市大同區大稻埕碼頭,台北市,大同區
Feature,9442.0,大興山莊,Point,"121.55779, 25.12251",121.55779,25.122510000000002,台灣台北市士林區大興山莊,台北市,士林區
Feature,605.0,大興山莊,Point,"121.55784, 25.12245",121.55783999999998,25.12245,台灣台北市士林區大興山莊,台北市,士林區
Feature,45.0,大興街口,Point,"121.49959398775997, 25.13042627271801",121.49959398775995,25.13042627271801,台灣台北市北投區北投路二段2522號,台北市,北投區
Feature,1000072.0,大龍峒保安宮,Point,"121.51562099254998, 25.072090676005985",121.51562099255,25.072090676005985,台灣台北市大同區大龍峒保安宮,台北市,大同區
Feature,1000168.0,大龍峒保安宮,Point,"121.51545774834999, 25.071954416746035",121.51545774834999,25.071954416746035,台灣台北市大同區大龍峒保安宮,台北市,大同區
Feature,47.0,大磺嘴,Point,"121.5225, 25.14257",121.5225,25.142570000000003,台灣台北市北投區大磺嘴,台北市,北投區
Feature,1000410.0,大磺嘴,Point,"121.52271, 25.14246",121.52271,25.14246,台灣台北市北投區泉源路144號,台北市,北投區
Feature,606.0,大豐,Point,"121.58131, 25.11986",121.58131000000002,25.11986,台灣台北市士林區大豐,台北市,士林區
Feature,9422.0,大豐,Point,"121.58137489814997, 25.120024854069033",121.58137489814995,25.120024854069037,台灣台北市士林區至善路三段219號,台北市,士林區
Feature,560.0,小北街,Point,"121.5268043107593, 25.090699658918457",121.5268043107593,25.090699658918453,台灣台北市士林區文林路245號,台北市,士林區
Feature,10208.0,小北街,Point,"121.52701588094146, 25.090485610726976",121.52701588094145,25.090485610726976,台灣台北市士林區文林路184號1樓號,台北市,士林區
Feature,2364.0,小坑口,Point,"121.57936164290562, 24.986242787468743",121.57936164290561,24.986242787468747,台灣台北市文山區小坑口,台北市,文山區
Feature,56088.0,小坑口,Point,"121.57970120106151, 24.986106163648323",121.57970120106151,24.986106163648323,台灣台北市文山區小坑口,台北市,文山區
Feature,20313.0,小油坑,Point,"121.54729, 25.1804",121.54728999999999,25.1804,台灣台北市北投區小油坑,台北市,北投區
Feature,592.0,小油坑,Point,"121.54748, 25.1768",121.54748000000001,25.1768,台灣台北市北投區小油坑服務站,台北市,北投區
Feature,50691.0,小南門,Point,"121.507376582837, 25.038154629339367",121.50737658283701,25.03815462933937,台灣台北市中正區中華路一段89-6號,台北市,中正區
Feature,1000080.0,小南門,Point,"121.50684381674617, 25.03816932464793",121.50684381674616,25.03816932464793,台灣台北市萬華區中華路一段200號,台北市,萬華區
Feature,1853.0,小南門(和平院區),Point,"121.50842558221707, 25.036334618202016",121.50842558221709,25.036334618202012,台灣台北市中正區小南門(和平院區),台北市,中正區
Feature,4088.0,小南門(和平院區),Point,"121.50772027980435, 25.03726594455612",121.50772027980436,25.037265944556122,台灣台北市中正區小南門(和平院區),台北市,中正區
Feature,14418.0,山仔后,Point,"121.54714281840454, 25.138062525621997",121.54714281840454,25.138062525622,台灣台北市士林區山仔后,台北市,士林區
Feature,557.0,山仔后,Point,"121.54684013156432, 25.13806157487684",121.54684013156431,25.138061574876836,台灣台北市士林區山仔后,台北市,士林區
Feature,559.0,山仔后派出所,Point,"121.54600349493127, 25.134667152606937",121.54600349493128,25.134667152606937,台灣台北市士林區仰德大道四段168號,台北市,士林區
Feature,558.0,山仔后派出所,Point,"121.54582681610188, 25.133547432024006",121.54582681610188,25.133547432024013,台灣台北市士林區中華路2號,台北市,士林區
Feature,604.0,山豬湖,Point,"121.5565648437224, 25.14233996666709",121.5565648437224,25.14233996666709,台灣台北市士林區山豬湖,台北市,士林區
Feature,14420.0,山豬湖,Point,"121.55656132640817, 25.142183684745678",121.55656132640816,25.142183684745678,台灣台北市士林區山豬湖,台北市,士林區
Feature,4729.0,山豬窟,Point,"121.62212, 25.03122",121.62212,25.03122,台灣台北市南港區臨時站四,台北市,南港區
Feature,4723.0,山豬窟,Point,"121.6219, 25.03102",121.6219,25.03102,台灣台北市南港區臨時站四,台北市,南港區
Feature,1609.0,山豬窟游泳池,Point,"121.62429265606751, 25.03224586797741",121.62429265606752,25.03224586797741,台灣台北市南港區山豬窟游泳池,台北市,南港區
Feature,14402.0,川瀨,Point,"121.56738, 25.11631",121.56738,25.116310000000002,台灣台北市士林區川瀨,台北市,士林區
Feature,609.0,川瀨,Point,"121.56755, 25.11603",121.56755,25.11603,台灣台北市士林區川瀨,台北市,士林區
Feature,1607.0,工程營產中心,Point,"121.61083953256995, 25.05243551362195",121.61083953256995,25.05243551362195,台灣台北市南港區忠孝東路520號,台北市,南港區
Feature,3922.0,工程營產中心,Point,"121.61046498528995, 25.05265345702299",121.61046498528995,25.052653457022988,台灣台北市南港區工程營產中心,台北市,南港區
Feature,600.0,工業區,Point,"121.4958, 25.1042",121.4958,25.1042,台灣台北市士林區延平北路七段106巷325號,台北市,士林區
Feature,967.0,干城一村,Point,"121.59901635581997, 25.079446784274026",121.59901635581996,25.079446784274026,台灣台北市內湖區金湖路175號,台北市,內湖區
Feature,50504.0,干城一村,Point,"121.59930603438998, 25.079453392087974",121.59930603439,25.07945339208797,台灣台北市內湖區美國在臺協會,台北市,內湖區
Feature,1000973.0,中山女高,Point,"121.53702, 25.04943",121.53702,25.049429999999997,台灣台北市中山區中山女高,台北市,中山區
Feature,1186.0,中山女高,Point,"121.53607, 25.04831",121.53607,25.04831,台灣台北市中山區長安東路二段118-1號,台北市,中山區
Feature,4007.0,中山女高,Point,"121.53810212764998, 25.048445140104974",121.53810212764999,25.04844514010497,台灣台北市中山區中山女高,台北市,中山區
Feature,1000164.0,中山女高,Point,"121.53810020369995, 25.04827992282696",121.53810020369995,25.048279922826964,台灣台北市中山區八德路二段167巷33號,台北市,中山區
Feature,6655.0,中山女高,Point,"121.53640425130997, 25.049848028089",121.53640425130995,25.049848028089,台灣台北市中山區建國北路一段90號11號,台北市,中山區
Feature,1000255.0,中山女高,Point,"121.53617318251997, 25.048395961459022",121.53617318251995,25.048395961459022,台灣台北市中山區長安東路二段118號,台北市,中山區
Feature,610.0,中山北路口,Point,"121.52449467394997, 25.106225702000962",121.52449467394995,25.106225702000962,台灣台北市士林區中山北路六段151號,台北市,士林區
Feature,1000675.0,中山北路口,Point,"121.52421214715997, 25.106227110727033",121.52421214715996,25.106227110727033,台灣台北市士林區德行西路15號,台北市,士林區
Feature,1000712.0,中山市場,Point,"121.52248051916906, 25.051275415605794",121.52248051916906,25.051275415605797,台灣台北市中山區台1甲線115號,台北市,中山區
Feature,1000064.0,中山市場,Point,"121.52202112764998, 25.051264053859967",121.52202112764999,25.051264053859967,台灣台北市中山區中山北路一段132號,台北市,中山區
Feature,10415.0,中山老人住宅,Point,"121.52826288821996, 25.058190728001026",121.52826288821994,25.058190728001023,台灣台北市中山區民生東路二段13-1號,台北市,中山區
Feature,1347.0,中山老人住宅,Point,"121.52728, 25.0572",121.52728,25.0572,台灣台北市中山區新生北路二段72巷1-5號,台北市,中山區
Feature,1346.0,中山老人住宅,Point,"121.52940848346995, 25.057935057442972",121.52940848346995,25.057935057442972,台灣台北市中山區中原街口(老人住宅),台北市,中山區
Feature,4786.0,中山老人住宅,Point,"121.52781, 25.05699",121.52781,25.05699,台灣台北市中山區新生北路二段77號,台北市,中山區
Feature,1407.0,中山足球場,Point,"121.52080601349448, 25.068586556060353",121.5208060134945,25.068586556060357,台灣台北市中山區花博公園,台北市,中山區
Feature,1406.0,中山足球場,Point,"121.52215263353256, 25.06836765846074",121.52215263353256,25.068367658460737,台灣台北市中山區民族西路2-3號,台北市,中山區
Feature,1191.0,中山里,Point,"121.52534755092998, 25.055190215596028",121.52534755092998,25.05519021559603,台灣台北市中山區長春路29號,台北市,中山區
Feature,10410.0,中山里(民生),Point,"121.52693, 25.05795",121.52693000000001,25.05795,台灣台北市中山區民生東路一段88號,台北市,中山區
Feature,16266.0,中山區公所,Point,"121.53362277049997, 25.064813525526965",121.53362277049996,25.06481352552697,台灣台北市中山區中山區公所,台北市,中山區
Feature,1192.0,中山區公所,Point,"121.53409, 25.06471",121.53408999999999,25.06471,台灣台北市中山區農安街227-1號,台北市,中山區
Feature,7607.0,中山國小,Point,"121.52572, 25.06352",121.52571999999999,25.06352,台灣台北市中山區中山國小,台北市,中山區
Feature,1193.0,中山國小,Point,"121.52550052513998, 25.06394478457101",121.52550052513998,25.063944784571014,台灣台北市中山區林森北路550號,台北市,中山區
Feature,6660.0,中山國小(新生),Point,"121.52753121432812, 25.063292886401275",121.52753121432812,25.06329288640127,台灣台北市中山區新生北路三段12號,台北市,中山區
Feature,6663.0,中山國小(新生),Point,"121.52795265277999, 25.06376514071195",121.52795265278,25.06376514071195,台灣台北市中山區新生北路三段15號,台北市,中山區
Feature,14424.0,中山樓,Point,"121.54959583067999, 25.151385097542978",121.54959583068,25.151385097542978,台灣台北市北投區中山樓,台北市,北投區
Feature,611.0,中山樓,Point,"121.54964192393996, 25.151516250906",121.54964192393996,25.151516250906,台灣台北市北投區中山樓,台北市,北投區
Feature,20257.0,中山樓(正門),Point,"121.55256, 25.15549",121.55256000000001,25.15549,台灣台北市北投區陽明路二段15號,台北市,北投區
Feature,4823.0,中心街口,Point,"121.5119, 25.13907",121.5119,25.13907,台灣台北市北投區中心街47-14號,台北市,北投區
Feature,52.0,中央北路,Point,"121.47516794295602, 25.132873235986537",121.475167942956,25.132873235986533,台灣台北市北投區中央北路四段170號,台北市,北投區
Feature,3969.0,中央北路,Point,"121.47508022799636, 25.132577875766984",121.47508022799637,25.132577875766984,台灣台北市北投區中央北路,台北市,北投區
Feature,3966.0,中央北路三段,Point,"121.48265830688996, 25.137062010747005",121.48265830688996,25.137062010747005,台灣台北市北投區中央北路三段154號,台北市,北投區
Feature,53.0,中央北路三段,Point,"121.48295787500996, 25.13728394621799",121.48295787500996,25.13728394621799,台灣台北市北投區中央北路三段142號,台北市,北投區
Feature,56.0,中央南路,Point,"121.50141924173998, 25.13224662442097",121.50141924173998,25.13224662442097,台灣台北市北投區中央南路一段39號,台北市,北投區
Feature,7241.0,中央南路,Point,"121.50131769691997, 25.132183135434982",121.50131769691995,25.132183135434985,台灣台北市北投區中央南路,台北市,北投區
Feature,50535.0,中央站,Point,"121.56162, 25.10754",121.56161999999999,25.10754,台灣台北市士林區中央站,台北市,士林區
Feature,9408.0,中央站,Point,"121.56156, 25.10762",121.56156000000001,25.10762,台灣台北市士林區中央車站,台北市,士林區
Feature,9434.0,中央電台,Point,"121.53006075826997, 25.078084858719976",121.53006075826995,25.07808485871998,台灣台北市中山區中央電台,台北市,中山區
Feature,1195.0,中央電台,Point,"121.53087560812922, 25.07797559646688",121.53087560812922,25.07797559646688,台灣台北市中山區北安路87巷2號,台北市,中山區
Feature,1858.0,中正二分局,Point,"121.51389688094996, 25.032381673632983",121.51389688094996,25.032381673632983,台灣台北市中正區中正二分局,台北市,中正區
Feature,1000513.0,中正二分局,Point,"121.51409178009399, 25.03272126120416",121.51409178009399,25.032721261204163,台灣台北市中正區中正二分局,台北市,中正區
Feature,4836.0,中正山登山口,Point,"121.52018, 25.15005",121.52018000000001,25.15005,台灣台北市北投區登山路143號,台北市,北投區
Feature,1000348.0,中正高中,Point,"121.51733011934853, 25.10578640701331",121.5173301193485,25.105786407013305,台灣台北市北投區中正高中,台北市,北投區
Feature,60.0,中正高中,Point,"121.51774, 25.10509",121.51773999999999,25.10509,台灣台北市北投區文林北路55號,台北市,北投區
Feature,4643.0,中正新城,Point,"121.50329615095997, 25.02479721668195",121.50329615095995,25.024797216681947,台灣台北市萬華區中正新城,台北市,萬華區
Feature,1740.0,中正新城,Point,"121.50307743551997, 25.024726001529004",121.50307743551996,25.024726001529004,台灣台北市萬華區中正新城,台北市,萬華區
Feature,1001369.0,中行里,Point,"121.58489, 25.040216",121.58488999999999,25.040216,台灣台北市信義區中坡南路241號,台北市,信義區
Feature,7237.0,中和里,Point,"121.49882288607706, 25.14227180568954",121.49882288607706,25.14227180568954,台灣台北市北投區中和街370號,台北市,北投區
Feature,63.0,中和里,Point,"121.49875524784997, 25.14206545364776",121.49875524784996,25.14206545364776,台灣台北市北投區中和街367號,台北市,北投區
Feature,64.0,中和街,Point,"121.50152074498578, 25.13915718631905",121.5015207449858,25.13915718631905,台灣台北市北投區中和街209號,台北市,北投區
Feature,7238.0,中和街,Point,"121.50168845672427, 25.139208099171842",121.50168845672428,25.13920809917184,台灣台北市北投區中和街228號,台北市,北投區
Feature,4831.0,中油大樓,Point,"121.56946376189997, 25.039171156730962",121.56946376189995,25.039171156730962,台灣台北市信義區中油大樓,台北市,信義區
Feature,615.0,中社路11巷,Point,"121.56021, 25.11119",121.56021000000001,25.11119,台灣台北市士林區中社路十一巷,台北市,士林區
Feature,614.0,中社路11巷,Point,"121.56014, 25.11097",121.56013999999999,25.110970000000002,台灣台北市士林區中社路十一巷,台北市,士林區
Feature,617.0,中社路17巷,Point,"121.56168, 25.10859",121.56168000000001,25.10859,台灣台北市士林區中社路十七巷,台北市,士林區
Feature,616.0,中社路17巷,Point,"121.56204, 25.10791",121.56204,25.10791,台灣台北市士林區中社路一段82號,台北市,士林區
Feature,20229.0,中社路一段61巷口,Point,"121.56072511656996, 25.106963640172996",121.56072511656996,25.106963640173003,台灣台北市士林區中社路一段61巷口,台北市,士林區
Feature,20228.0,中社路一段61巷口,Point,"121.56067558895997, 25.106966644685965",121.56067558895997,25.106966644685965,台灣台北市士林區中社路一段61巷口,台北市,士林區
Feature,1610.0,中研院,Point,"121.61654169080997, 25.04297083142995",121.61654169080995,25.042970831429948,台灣台北市南港區研究院路二段108號,台北市,南港區
Feature,50026.0,中研院,Point,"121.61655600611998, 25.043335147581026",121.61655600611998,25.043335147581026,台灣台北市南港區研究院路二段75號,台北市,南港區
Feature,1611.0,中研新村,Point,"121.61555, 25.04483",121.61555,25.044829999999997,台灣台北市南港區研究院路二段86號,台北市,南港區
Feature,1000313.0,中研新村,Point,"121.61540967112997, 25.04547859673199",121.61540967112995,25.045478596731986,台灣台北市南港區中研新村,台北市,南港區
Feature,1000952.0,中國文化大學,Point,"121.53999330048495, 25.13732321140153",121.53999330048497,25.13732321140153,台灣台北市士林區文化大學一,台北市,士林區
Feature,2375.0,中國科技大學,Point,"121.55590207059274, 25.000342701549485",121.55590207059272,25.00034270154948,台灣台北市文山區興隆路三段51號,台北市,文山區
Feature,2511.0,中國科技大學(辛亥),Point,"121.55409, 24.999501",121.55408999999999,24.999501000000002,台灣台北市文山區辛亥路五段33號,台北市,文山區
Feature,3913.0,中國時報,Point,"121.49697516071996, 25.035454137390957",121.49697516071994,25.03545413739096,台灣台北市萬華區和平西路三段207號,台北市,萬華區
Feature,3940.0,中國時報,Point,"121.49632785173534, 25.03524798679483",121.49632785173534,25.03524798679483,台灣台北市萬華區和平西路三段224號,台北市,萬華區
Feature,1742.0,中國時報,Point,"121.49680939610587, 25.035229437690983",121.49680939610587,25.035229437690983,台灣台北市萬華區中國時報,台北市,萬華區
Feature,1612.0,中國電視公司,Point,"121.59918, 25.05646",121.59918,25.05646,台灣台北市南港區重陽路118號,台北市,南港區
Feature,0.0,中國電視公司,Point,"121.59951, 25.05684",121.59951000000001,25.05684,台灣台北市南港區重陽路126號,台北市,南港區
Feature,1196.0,中崙,Point,"121.54301321881555, 25.04723006147837",121.54301321881556,25.047230061478373,台灣台北市中山區八德路二段324號,台北市,中山區
Feature,20356.0,中崙,Point,"121.54284, 25.04742",121.54283999999998,25.047420000000002,台灣台北市中山區八德路二段315號,台北市,中山區
Feature,2200.0,中崙里,Point,"121.54377, 25.0465",121.54377,25.0465,台灣台北市中山區復興南路一段28號,台北市,中山區
Feature,6992.0,中崙里,Point,"121.54400947486997, 25.046480560109995",121.54400947486995,25.04648056011,台灣台北市松山區復興南路一段29號,台北市,松山區
Feature,2376.0,中港抽水站,Point,"121.55331, 24.98616",121.55331000000001,24.98616,台灣台北市文山區中港抽水站,台北市,文山區
Feature,7003.0,中港抽水站,Point,"121.55333205989439, 24.986567737448656",121.55333205989442,24.986567737448656,台灣台北市文山區辛亥路七段21號,台北市,文山區
Feature,621.0,中湖,Point,"121.5568, 25.17797",121.5568,25.177970000000002,台灣台北市北投區中湖,台北市,北投區
Feature,1199.0,中華日報,Point,"121.53171, 25.05493",121.53171,25.05493,台灣台北市中山區長春路143號,台北市,中山區
Feature,1743.0,中華南海路口,Point,"121.50647153712949, 25.02728549075724",121.50647153712949,25.027285490757237,台灣台北市萬華區中華路二段450號,台北市,萬華區
Feature,4603.0,中華南海路口,Point,"121.50681043676686, 25.027271266417",121.50681043676686,25.027271266417,台灣台北市中正區中華路二段339號,台北市,中正區
Feature,1613.0,中華科技大學,Point,"121.61118731778998, 25.033523627415008",121.61118731779,25.033523627415015,台灣台北市南港區中華科技大學,台北市,南港區
Feature,50025.0,中華科技大學,Point,"121.61111105025996, 25.033696570560977",121.61111105025995,25.033696570560974,台灣台北市南港區中華科技大學,台北市,南港區
Feature,4085.0,中華科技大學(正門),Point,"121.60976523976998, 25.033828273004037",121.60976523977,25.03382827300404,台灣台北市南港區中華科技大學(正門),台北市,南港區
Feature,1496.0,中華航空,Point,"121.55578, 25.06188",121.55578,25.06188,台灣台北市松山區中華航空,台北市,松山區
Feature,8604.0,中華航空,Point,"121.55551408216998, 25.062091887143968",121.55551408216999,25.06209188714397,台灣台北市松山區中華航空,台北市,松山區
Feature,1744.0,中華路北站,Point,"121.50942125396999, 25.045681209941954",121.50942125396999,25.045681209941954,台灣台北市中正區中華路北站,台北市,中正區
Feature,1000067.0,中華路北站,Point,"121.50930206629997, 25.044950967452",121.50930206629995,25.044950967452003,台灣台北市中正區中華路北站,台北市,中正區
Feature,1000078.0,中華路北站,Point,"121.50917203142048, 25.045609618376766",121.50917203142048,25.04560961837677,台灣台北市萬華區中華路北站,台北市,萬華區
Feature,1001169.0,中華路北站,Point,"121.5087389427595, 25.04459570378295",121.50873894275949,25.04459570378295,台灣台北市萬華區中華路一段94號,台北市,萬華區
Feature,50015.0,中華賓士,Point,"121.58993310023355, 25.053508373226514",121.58993310023355,25.053508373226514,台灣台北市南港區中華賓士,台北市,南港區
Feature,1614.0,中華賓士,Point,"121.58997776482411, 25.053280189592222",121.58997776482413,25.05328018959223,台灣台北市南港區南港路三段49號,台北市,南港區
Feature,622.0,中窟,Point,"121.49649, 25.09534",121.49649,25.09534,台灣台北市士林區中窟,台北市,士林區
Feature,4989.0,中銀山莊,Point,"121.53298, 25.126841",121.53298000000001,25.126841,台灣台北市士林區中山北路七段232巷20弄100號,台北市,士林區
Feature,1194.0,中影八德大樓,Point,"121.54082728835998, 25.04670644185399",121.54082728835999,25.046706441853992,台灣台北市中山區中影八德大樓,台北市,中山區
Feature,1000666.0,中影八德大樓,Point,"121.54091625528997, 25.04701627790997",121.54091625528996,25.04701627790997,台灣台北市中山區八德路二段247號,台北市,中山區
Feature,624.0,中影文化城,Point,"121.54455, 25.09704",121.54455,25.09704,台灣台北市士林區中影文化城,台北市,士林區
Feature,9448.0,中影文化城,Point,"121.54352, 25.09732",121.54352,25.09732,台灣台北市士林區中影文化城,台北市,士林區
Feature,1203.0,中興中學,Point,"121.54282102083997, 25.048335893876995",121.54282102083995,25.048335893876995,台灣台北市中山區中興中學,台北市,中山區
Feature,20363.0,中興中學,Point,"121.54309, 25.04821",121.54308999999999,25.04821,台灣台北市中山區中興中學,台北市,中山區
Feature,56103.0,中興公寓,Point,"121.55650797316515, 24.988550945925695",121.55650797316515,24.988550945925695,台灣台北市文山區木柵路一段327-1號,台北市,文山區
Feature,2377.0,中興公寓,Point,"121.55650554961541, 24.988365663559936",121.55650554961541,24.988365663559932,台灣台北市文山區中興公寓,台北市,文山區
Feature,5441.0,五分社區,Point,"121.61336724162986, 25.06893349568124",121.61336724162987,25.06893349568124,台灣台北市內湖區東湖路31之1號,台北市,內湖區
Feature,986.0,五分社區,Point,"121.61366857735649, 25.0687373004689",121.61366857735649,25.068737300468896,台灣台北市內湖區東湖路52號,台北市,內湖區
Feature,2038.0,五分埔商圈(中坡北),Point,"121.58052017930422, 25.047143732040848",121.58052017930422,25.047143732040855,台灣台北市南港區五分埔商圈(中坡北),台北市,南港區
Feature,1000123.0,五分埔商圈(中坡北),Point,"121.58076768783347, 25.04735558891103",121.58076768783349,25.04735558891103,台灣台北市南港區中坡北路76巷2號,台北市,南港區
Feature,1000201.0,五分碑,Point,"121.62093686375998, 25.07618675233497",121.62093686375998,25.076186752334966,台灣台北市內湖區康樂街198號,台北市,內湖區
Feature,1000211.0,五分碑,Point,"121.62120588227997, 25.076147",121.62120588227995,25.076147,台灣台北市內湖區五分埤,台北市,內湖區
Feature,1197.0,五常國小,Point,"121.54096, 25.06401",121.54096000000001,25.06401,台灣台北市中山區五常國小,台北市,中山區
Feature,6989.0,五常街口,Point,"121.54405310911999, 25.06369319139996",121.54405310912,25.06369319139996,台灣台北市中山區復興北路438號,台北市,中山區
Feature,1198.0,五常街口,Point,"121.54442022089997, 25.064149963864967",121.54442022089995,25.06414996386497,台灣台北市松山區復興北路457號,台北市,松山區
Feature,1000138.0,仁愛大安路口,Point,"121.54566340851369, 25.037847113895413",121.54566340851368,25.03784711389541,台灣台北市大安區仁愛大安路口,台北市,大安區
Feature,1861.0,仁愛中山路口,Point,"121.51836685151997, 25.03926196832",121.51836685151994,25.03926196832,台灣台北市中正區仁愛中山路口,台北市,中正區
Feature,1860.0,仁愛中山路口,Point,"121.51845230306998, 25.039129149554952",121.51845230306999,25.03912914955495,台灣台北市中正區仁愛中山路口,台北市,中正區
Feature,1862.0,仁愛光復路口,Point,"121.55728, 25.03754",121.55728,25.03754,台灣台北市大安區仁愛光復路口,台北市,大安區
Feature,6923.0,仁愛光復路口,Point,"121.55793809453546, 25.037694841891813",121.55793809453544,25.03769484189181,台灣台北市信義區仁愛光復路口,台北市,信義區
Feature,6924.0,仁愛安和路口,Point,"121.55159383740947, 25.037864192762882",121.55159383740947,25.037864192762882,台灣台北市大安區仁愛安和路口,台北市,大安區
Feature,1863.0,仁愛安和路口,Point,"121.55098545154998, 25.037686159480984",121.55098545154999,25.037686159480987,台灣台北市大安區仁愛安和路口,台北市,大安區
Feature,6926.0,仁愛延吉街口,Point,"121.55577939471694, 25.0377743210687",121.55577939471694,25.037774321068696,台灣台北市大安區仁愛延吉街口,台北市,大安區
Feature,1864.0,仁愛延吉街口,Point,"121.55531421493261, 25.037617693270423",121.5553142149326,25.037617693270427,台灣台北市大安區仁愛延吉街口,台北市,大安區
Feature,1865.0,仁愛杭州路口,Point,"121.52545457671997, 25.038352332717956",121.52545457671995,25.038352332717963,台灣台北市中正區仁愛杭州路口,台北市,中正區
Feature,1935.0,仁愛杭州路口,Point,"121.52487, 25.03676",121.52486999999999,25.03676,台灣台北市中正區杭州南路一段127號,台北市,中正區
Feature,1000134.0,仁愛杭州路口,Point,"121.52507, 25.03823",121.52507,25.03823,台灣台北市中正區仁愛路二段2號,台北市,中正區
Feature,20403.0,仁愛林森路口,Point,"121.52194, 25.03954",121.52193999999999,25.03954,台灣台北市中正區林森南路69號,台北市,中正區
Feature,6942.0,仁愛林森路口,Point,"121.52136662839578, 25.03873336847667",121.52136662839578,25.038733368476674,台灣台北市中正區仁愛林森路口,台北市,中正區
Feature,1866.0,仁愛林森路口,Point,"121.5216147997187, 25.039461994899394",121.5216147997187,25.039461994899398,台灣台北市中正區仁愛林森路口,台北市,中正區
Feature,6943.0,仁愛林森路口,Point,"121.52136835964808, 25.038898825434686",121.52136835964808,25.03889882543469,台灣台北市中正區仁愛林森路口,台北市,中正區
Feature,2204.0,仁愛建國路口一,Point,"121.53942763921995, 25.038167764865026",121.53942763921995,25.038167764865022,台灣台北市大安區仁愛建國路口一,台北市,大安區
Feature,1867.0,仁愛建國路口一,Point,"121.53707211079558, 25.038031405546867",121.53707211079558,25.03803140554687,台灣台北市大安區仁愛建國路口(一),台北市,大安區
Feature,2205.0,仁愛建國路口二,Point,"121.54066552600054, 25.037966240288775",121.54066552600054,25.037966240288767,台灣台北市大安區仁愛建國路口二,台北市,大安區
Feature,2208.0,仁愛國小,Point,"121.55220930057997, 25.036246113996995",121.55220930057995,25.036246113996995,台灣台北市大安區仁愛國小,台北市,大安區
Feature,2210.0,仁愛國中,Point,"121.55217580125998, 25.03661955433699",121.55217580125998,25.036619554336987,台灣台北市大安區仁愛國中,台北市,大安區
Feature,2209.0,仁愛國中,Point,"121.54908356413998, 25.035761878518",121.54908356413998,25.035761878518,台灣台北市大安區敦化南路1段287號,台北市,大安區
Feature,4170.0,仁愛國中,Point,"121.54897, 25.03562",121.54897,25.03562,台灣台北市大安區敦化南路1段287號,台北市,大安區
Feature,2305.0,仁愛國泰醫院,Point,"121.5525986334241, 25.03767772421895",121.5525986334241,25.037677724218952,台灣台北市大安區仁愛國泰醫院,台北市,大安區
Feature,6925.0,仁愛國泰醫院,Point,"121.55308728267802, 25.037828800783664",121.553087282678,25.037828800783664,台灣台北市大安區仁愛國泰醫院,台北市,大安區
Feature,1868.0,仁愛紹興街口,Point,"121.52358781348997, 25.038452904389967",121.52358781348995,25.038452904389967,台灣台北市中正區仁愛紹興街口,台北市,中正區
Feature,1000132.0,仁愛紹興路口,Point,"121.52355, 25.038676",121.52355,25.038676000000002,台灣台北市中正區紹興南街24號,台北市,中正區
Feature,1869.0,仁愛復興路口,Point,"121.54394676438999, 25.03808465225198",121.54394676438999,25.03808465225198,台灣台北市大安區仁愛復興路口,台北市,大安區
Feature,6919.0,仁愛敦化路口,Point,"121.54749725501806, 25.03795656568396",121.54749725501806,25.03795656568396,台灣台北市大安區仁愛敦化路口,台北市,大安區
Feature,1201.0,仁愛敦化路口,Point,"121.54769029083997, 25.037783534230957",121.54769029083995,25.03778353423096,台灣台北市大安區仁愛敦化路口,台北市,大安區
Feature,13111.0,仁愛敦化路口,Point,"121.54863793213691, 25.039044253405706",121.54863793213691,25.039044253405706,台灣台北市大安區仁愛敦化路口,台北市,大安區
Feature,75.0,仁愛新生路口,Point,"121.53400594123318, 25.038026893758715",121.53400594123319,25.038026893758715,台灣台北市大安區仁愛路三段14號,台北市,大安區
Feature,6682.0,仁愛新生路口,Point,"121.53288315639965, 25.037749846118178",121.53288315639963,25.037749846118174,台灣台北市大安區仁愛新生路口,台北市,大安區
Feature,1202.0,仁愛新生路口,Point,"121.53432887504502, 25.038213243876548",121.53432887504502,25.03821324387655,台灣台北市大安區幸安國小,台北市,大安區
Feature,6681.0,仁愛新生路口,Point,"121.53268209936998, 25.038512442943013",121.53268209936998,25.03851244294301,台灣台北市中正區仁愛新生路口,台北市,中正區
Feature,2214.0,仁愛新生路口一,Point,"121.53241058283999, 25.038118589927997",121.53241058284,25.038118589928004,台灣台北市中正區仁愛新生路口,台北市,中正區
Feature,2215.0,仁愛路二段,Point,"121.52768744987834, 25.036805555284527",121.52768744987834,25.036805555284534,台灣台北市中正區仁愛路二段,台北市,中正區
Feature,1001466.0,仁愛路二段,Point,"121.52567, 25.03951",121.52566999999999,25.03951,台灣台北市中正區仁愛路二段,台北市,中正區
Feature,1871.0,仁愛路二段,Point,"121.52825498534801, 25.03758704759558",121.528254985348,25.037587047595576,台灣台北市中正區金山南路一段67號,台北市,中正區
Feature,1000190.0,仁愛路口,Point,"121.54897, 25.03682",121.54897,25.036820000000002,台灣台北市大安區敦化南路1段265號,台北市,大安區
Feature,1872.0,仁愛臨沂街口,Point,"121.52952, 25.03834",121.52951999999999,25.038339999999998,台灣台北市中正區仁愛路二段53號,台北市,中正區
Feature,2216.0,仁愛臨沂街口,Point,"121.52915320972703, 25.038161890943584",121.52915320972704,25.038161890943584,台灣台北市中正區仁愛路二段62號,台北市,中正區
Feature,1007.0,仁寶大樓,Point,"121.56884632191534, 25.0790173811419",121.56884632191534,25.079017381141895,台灣台北市內湖區仁寶大樓,台北市,內湖區
Feature,1000896.0,仁寶大樓,Point,"121.56858358627046, 25.079320857150087",121.56858358627045,25.07932085715009,台灣台北市內湖區YouBike1.0_Zhouzhi Park No.2,台北市,內湖區
Feature,1497.0,介壽國中,Point,"121.55579728835997, 25.058211041333976",121.55579728835994,25.058211041333976,台灣台北市松山區介壽國中,台北市,松山區
Feature,1741.0,內江街,Point,"121.50513239880999, 25.04153818221295",121.50513239881,25.04153818221295,台灣台北市萬華區內江街,台北市,萬華區
Feature,618.0,內厝,Point,"121.57964, 25.13287",121.57964,25.13287,台灣台北市士林區平菁街95巷21號,台北市,士林區
Feature,1001457.0,內埔,Point,"121.53078, 25.15773",121.53078000000001,25.157729999999997,台灣台北市北投區內埔,台北市,北投區
Feature,1001469.0,內埔,Point,"121.53073, 25.15791",121.53073,25.15791,台灣台北市北投區東昇路107-1號,台北市,北投區
Feature,991.0,內湖行政大樓,Point,"121.58882662705022, 25.068932416966145",121.58882662705022,25.068932416966142,台灣台北市內湖區內湖行政中心,台北市,內湖區
Feature,8667.0,內湖行政大樓,Point,"121.58960407407417, 25.069123723644438",121.58960407407416,25.06912372364444,台灣台北市內湖區民權東路六段101號,台北市,內湖區
Feature,993.0,內湖派出所,Point,"121.58961627730197, 25.081775511750557",121.58961627730196,25.08177551175056,台灣台北市內湖區內湖路二段342號,台北市,內湖區
Feature,994.0,內湖派出所,Point,"121.59002803537291, 25.082041308811394",121.59002803537292,25.082041308811394,台灣台北市內湖區內湖路二段259號,台北市,內湖區
Feature,8611.0,內湖派出所一,Point,"121.5904470598496, 25.08133963426498",121.59044705984958,25.081339634264978,台灣台北市內湖區成功路三段20號,台北市,內湖區
Feature,1000293.0,內湖站,Point,"121.58531613678048, 25.064829637641687",121.58531613678049,25.064829637641694,台灣台北市內湖區新湖二路369號,台北市,內湖區
Feature,1000283.0,內湖站,Point,"121.5821, 25.061442",121.5821,25.061442,台灣台北市內湖區行愛路5號,台北市,內湖區
Feature,1000284.0,內湖站,Point,"121.58213457672996, 25.061610648488966",121.58213457672994,25.06161064848897,台灣台北市內湖區行愛路5號,台北市,內湖區
Feature,996.0,內湖站,Point,"121.58469213176151, 25.06460502599725",121.58469213176151,25.06460502599725,台灣台北市內湖區新湖一路377號,台北市,內湖區
Feature,8523.0,內湖高中,Point,"121.58830965029998, 25.079013193129978",121.58830965029999,25.079013193129978,台灣台北市內湖區內湖高中,台北市,內湖區
Feature,998.0,內湖高中,Point,"121.58734526212226, 25.078606153427124",121.58734526212227,25.078606153427124,台灣台北市內湖區文德路225號,台北市,內湖區
Feature,8634.0,內湖國小,Point,"121.58178827975998, 25.079549235945994",121.58178827975998,25.079549235945997,台灣台北市內湖區內湖路二段45號,台北市,內湖區
Feature,999.0,內湖國小,Point,"121.58127545155997, 25.079290481285025",121.58127545155995,25.079290481285025,台灣台北市內湖區內湖路二段90號,台北市,內湖區
Feature,8618.0,內湖國中,Point,"121.58776, 25.07701",121.58776,25.07701,台灣台北市內湖區內湖國中,台北市,內湖區
Feature,1000.0,內湖國中,Point,"121.58784, 25.07696",121.58783999999999,25.07696,台灣台北市內湖區內湖國中,台北市,內湖區
Feature,8402.0,內湖基湖路口,Point,"121.56535868717997, 25.08167505817",121.56535868717995,25.08167505817,台灣台北市內湖區內湖基湖路口,台北市,內湖區
Feature,1001.0,內湖基湖路口,Point,"121.56522726007996, 25.08198996667301",121.56522726007995,25.08198996667301,台灣台北市內湖區內湖基湖路口,台北市,內湖區
Feature,1000204.0,內湖焚化廠(安康),Point,"121.60315380604997, 25.063155294862018",121.60315380604996,25.063155294862018,台灣台北市內湖區內湖焚化廠(安康),台北市,內湖區
Feature,1000207.0,內湖焚化廠(安康),Point,"121.60309521593999, 25.063054384064024",121.60309521594,25.06305438406402,台灣台北市內湖區安康路226號,台北市,內湖區
Feature,1000205.0,內湖焚化廠(葫蘆洲公園),Point,"121.60347, 25.06223",121.60347,25.06223,台灣台北市內湖區內湖焚化廠(葫蘆洲公園),台北市,內湖區
Feature,1003.0,內湖新城,Point,"121.59669594840999, 25.078365989044997",121.59669594841,25.078365989045,台灣台北市內湖區內湖新城,台北市,內湖區
Feature,8614.0,內湖新城,Point,"121.59661481216996, 25.078460565182986",121.59661481216995,25.078460565182986,台灣台北市內湖區康寧路一段191號,台北市,內湖區
Feature,8612.0,內湖運動中心,Point,"121.57547046626996, 25.077240508774036",121.57547046626995,25.077240508774036,台灣台北市內湖區內湖運動中心,台北市,內湖區
Feature,50421.0,內湖運動公園,Point,"121.57483, 25.06668808980455",121.57483,25.06668808980455,台灣台北市內湖區舊宗路二段1號,台北市,內湖區
Feature,1004.0,內湖運動公園,Point,"121.57451, 25.06768",121.57451,25.06768,台灣台北市內湖區內湖運動公園,台北市,內湖區
Feature,76.0,內溝,Point,"121.61687, 25.095043",121.61686999999999,25.095043,台灣台北市內湖區康樂街238-1號,台北市,內湖區
Feature,1001280.0,內溝,Point,"121.61704, 25.094953",121.61703999999999,25.094953,台灣台北市內湖區康樂街238-1號,台北市,內湖區
Feature,623.0,內寮,Point,"121.57797615210998, 25.142287997916007",121.57797615210998,25.14228799791601,台灣台北市士林區平菁街93巷50號,台北市,士林區
Feature,9489.0,內雙溪橋,Point,"121.56221247618996, 25.11224057054801",121.56221247618996,25.11224057054801,台灣台北市士林區至善路三段7巷6號,台北市,士林區
Feature,627.0,內雙溪橋,Point,"121.56151, 25.11212",121.56151000000001,25.11212,台灣台北市士林區內雙溪橋,台北市,士林區
Feature,1001330.0,公民會館,Point,"121.50935094079998, 25.137790570279023",121.50935094079998,25.137790570279023,台灣台北市北投區公民會館(北投社大),台北市,北投區
Feature,6676.0,公企中心,Point,"121.52676149081637, 25.030665187863278",121.52676149081637,25.030665187863285,台灣台北市大安區金山南路二段109號,台北市,大安區
Feature,2195.0,公企中心,Point,"121.5272704410834, 25.029986597022607",121.52727044108342,25.02998659702261,台灣台北市大安區金華街124號,台北市,大安區
Feature,6673.0,公企中心,Point,"121.52766550634637, 25.030068917898603",121.52766550634635,25.030068917898607,台灣台北市大安區公企中心,台北市,大安區
Feature,2196.0,公企中心,Point,"121.52653369671846, 25.03066187258227",121.52653369671845,25.030661872582268,台灣台北市大安區金山南路二段98號,台北市,大安區
Feature,2372.0,公訓正門,Point,"121.56074545368998, 25.003280850296004",121.56074545368998,25.003280850296004,台灣台北市文山區公訓正門,台北市,文山區
Feature,50051.0,公務人員訓練處,Point,"121.56199469443997, 25.002035299043015",121.56199469443995,25.002035299043012,台灣台北市文山區公務人員訓練處,台北市,文山區
Feature,2373.0,公務人員訓練處,Point,"121.56221, 25.00179",121.56221000000001,25.00179,台灣台北市文山區公務人員訓練處,台北市,文山區
Feature,1000171.0,公教住宅,Point,"121.52212, 25.09068",121.52212,25.09068,台灣台北市士林區公教住宅,台北市,士林區
Feature,7258.0,公教住宅,Point,"121.52202, 25.09051",121.52202,25.090510000000002,台灣台北市士林區公教住宅,台北市,士林區
Feature,1495.0,公教住宅,Point,"121.55256408101998, 25.057928231108956",121.55256408102,25.05792823110896,台灣台北市松山區民生東路四段74號,台北市,松山區
Feature,10421.0,公教住宅,Point,"121.55189772750997, 25.058099703236007",121.55189772750995,25.058099703236014,台灣台北市松山區民生東路四段93號,台北市,松山區
Feature,6725.0,公園,Point,"121.57567510184997, 25.01739624988",121.57567510184995,25.01739624988,台灣台北市信義區公園,台北市,信義區
Feature,1000045.0,公館,Point,"121.53801284788997, 25.01160536577096",121.53801284788996,25.01160536577096,台灣台北市大安區公館,台北市,大安區
Feature,2219.0,公館,Point,"121.53762601586998, 25.011944117627007",121.53762601586998,25.01194411762701,台灣台北市大安區羅斯福路四段85號,台北市,大安區
Feature,1006.0,公館山,Point,"121.58091141490881, 25.071964976372612",121.5809114149088,25.07196497637261,台灣台北市內湖區瑞光路108號,台北市,內湖區
Feature,8621.0,公館山,Point,"121.58107818379285, 25.071961074381957",121.58107818379284,25.07196107438196,台灣台北市內湖區公館山,台北市,內湖區
Feature,625.0,公館地,Point,"121.55988, 25.12548",121.55988,25.12548,台灣台北市士林區永公路245巷42號,台北市,士林區
Feature,55012.0,公館里,Point,"121.56473, 25.12663",121.56473000000001,25.12663,台灣台北市士林區公館里,台北市,士林區
Feature,626.0,公館里,Point,"121.56444, 25.12654",121.56443999999999,25.12654,台灣台北市士林區公館里,台北市,士林區
Feature,84.0,公館華廈,Point,"121.50647864088147, 25.12456975488729",121.50647864088148,25.12456975488729,台灣台北市北投區公舘路297-2號,台北市,北投區
Feature,7232.0,公館華廈,Point,"121.50643396235698, 25.12447194012587",121.506433962357,25.124471940125872,台灣台北市北投區公舘路297-2號,台北市,北投區
Feature,78.0,六窟,Point,"121.53789, 25.15312",121.53788999999999,25.15312,台灣台北市北投區六窟,台北市,北投區
Feature,4725.0,天公堂,Point,"121.62076, 25.03724",121.62076,25.03724,台灣台北市南港區南深路33-5號,台北市,南港區
Feature,4726.0,天公堂,Point,"121.62067, 25.03746",121.62066999999999,25.03746,台灣台北市南港區南深路22巷3號,台北市,南港區
Feature,572.0,天文科學館,Point,"121.51822, 25.09549",121.51822,25.095489999999998,台灣台北市士林區天文科學館,台北市,士林區
Feature,632.0,天文科學館,Point,"121.51860317674998, 25.09485200295997",121.51860317674999,25.094852002959968,台灣台北市士林區基河路368號,台北市,士林區
Feature,50646.0,天北站,Point,"121.5266397440847, 25.123027150297563",121.5266397440847,25.123027150297567,台灣台北市士林區天母北路95號,台北市,士林區
Feature,634.0,天北站,Point,"121.52658686218578, 25.12283080528799",121.52658686218578,25.12283080528799,台灣台北市士林區天母北路70號,台北市,士林區
Feature,635.0,天母,Point,"121.53269, 25.124353",121.53268999999999,25.124353,台灣台北市士林區天母,台北市,士林區
Feature,50634.0,天母,Point,"121.53241, 25.12438",121.53241000000001,25.12438,台灣台北市士林區中山北路七段169號,台北市,士林區
Feature,4991.0,天母公園,Point,"121.53046, 25.1246",121.53046,25.1246,台灣台北市士林區天母公園,台北市,士林區
Feature,4983.0,天母忠誠路口,Point,"121.53442, 25.118631",121.53442,25.118631,台灣台北市士林區天母東路69巷1-1號,台北市,士林區
Feature,1001360.0,天母站,Point,"121.54041, 25.11424",121.54041000000001,25.11424,台灣台北市士林區士東路353巷2-1號,台北市,士林區
Feature,50655.0,天母國小,Point,"121.52615807605999, 25.118950713724",121.52615807606001,25.118950713723997,台灣台北市士林區天母北路2-1號,台北市,士林區
Feature,638.0,天母國小,Point,"121.52625291533995, 25.118785285123003",121.52625291533995,25.118785285123003,台灣台北市士林區天母國小,台北市,士林區
Feature,639.0,天母國中,Point,"121.53683, 25.11823",121.53683000000001,25.11823,台灣台北市士林區天母國中,台北市,士林區
Feature,50657.0,天母國中,Point,"121.53707, 25.11807",121.53707,25.11807,台灣台北市士林區天母東路104號,台北市,士林區
Feature,640.0,天母棒球場(士東),Point,"121.53289, 25.11244",121.53289,25.11244,台灣台北市士林區士東路192號,台北市,士林區
Feature,50652.0,天母棒球場(士東),Point,"121.53231, 25.11265",121.53231000000001,25.11265,台灣台北市士林區天母棒球場(士東),台北市,士林區
Feature,3951.0,天母棒球場(忠誠),Point,"121.53218379907175, 25.114302196006992",121.53218379907177,25.11430219600699,台灣台北市士林區忠誠路二段138號,台北市,士林區
Feature,3950.0,天母棒球場(忠誠),Point,"121.53189, 25.11328",121.53188999999999,25.11328,台灣台北市士林區天母棒球場(忠誠),台北市,士林區
Feature,4990.0,天母圓環,Point,"121.53244, 25.125021",121.53244,25.125021,台灣台北市士林區天母圓環,台北市,士林區
Feature,50638.0,天母新村,Point,"121.53156583068997, 25.12129900147602",121.53156583068994,25.12129900147602,台灣台北市士林區中山北路七段74號,台北市,士林區
Feature,644.0,天母新村,Point,"121.53134848346997, 25.12124699951998",121.53134848346994,25.121246999519983,台灣台北市士林區中山北路七段73號,台北市,士林區
Feature,4986.0,天母圖書館,Point,"121.53323, 25.123911",121.53323,25.123911,台灣台北市士林區天母圖書館,台北市,士林區
Feature,50635.0,天母廣場,Point,"121.53084, 25.11927",121.53084,25.11927,台灣台北市士林區中山北路七段20號,台北市,士林區
Feature,645.0,天母廣場,Point,"121.53053513127999, 25.11920485524101",121.53053513128,25.119204855241012,台灣台北市士林區中山北路七段27號,台北市,士林區
Feature,50648.0,天玉里,Point,"121.5266146223105, 25.121072704518788",121.5266146223105,25.12107270451879,台灣台北市士林區天母北路50號,台北市,士林區
Feature,646.0,天玉里,Point,"121.52678489437632, 25.12121213593969",121.52678489437632,25.121212135939693,台灣台北市士林區天母北路57號,台北市,士林區
Feature,4984.0,天和公園,Point,"121.53383, 25.119561",121.53383000000001,25.119560999999997,台灣台北市士林區天母東路69巷11-5號,台北市,士林區
Feature,4987.0,天和里,Point,"121.534221, 25.12567",121.534221,25.12567,台灣台北市士林區中山北路七段190巷18號,台北市,士林區
Feature,3944.0,天東站,Point,"121.53930387730996, 25.113168263792947",121.53930387730995,25.11316826379295,台灣台北市士林區東山路110巷2號,台北市,士林區
Feature,1408.0,天師宮,Point,"121.51077044133729, 25.068082533851264",121.51077044133729,25.068082533851268,台灣台北市大同區天師宮,台北市,大同區
Feature,5993.0,天師宮,Point,"121.51094583068999, 25.068319574451987",121.51094583069,25.06831957445199,台灣台北市大同區延平北路三段119號,台北市,大同區
Feature,56092.0,天恩宮,Point,"121.59229082678426, 24.9706272722007",121.59229082678426,24.970627272200698,台灣台北市文山區天恩宮,台北市,文山區
Feature,2390.0,天恩宮,Point,"121.59196996434392, 24.970575376193114",121.59196996434393,24.970575376193114,台灣台北市文山區天恩宮,台北市,文山區
Feature,1009.0,天程企業,Point,"121.57784448612999, 25.054772719853023",121.57784448613,25.054772719853023,台灣台北市內湖區南京東路六段120號,台北市,內湖區
Feature,4993.0,天壽里,Point,"121.52652, 25.116371",121.52651999999999,25.116371,台灣台北市士林區中山北路六段405巷66號,台北市,士林區
Feature,56106.0,文山一分局,Point,"121.56272492148348, 24.98904",121.56272492148348,24.98904,台灣台北市文山區106縣道145號,台北市,文山區
Feature,2378.0,文山一分局,Point,"121.56251, 24.98887",121.56251,24.988870000000002,台灣台北市文山區106縣道166號,台北市,文山區
Feature,2379.0,文山二分局,Point,"121.54124004132444, 24.99236129715783",121.54124004132444,24.992361297157828,台灣台北市文山區景文街26號,台北市,文山區
Feature,57710.0,文山二分局,Point,"121.54140254969151, 24.992054877892276",121.54140254969153,24.99205487789228,台灣台北市文山區文山二分局,台北市,文山區
Feature,2381.0,文山行政中心,Point,"121.56950584102633, 24.989707348792948",121.56950584102631,24.989707348792948,台灣台北市文山區木柵路三段177號,台北市,文山區
Feature,2380.0,文山行政中心,Point,"121.56981990908612, 24.98979603525165",121.56981990908614,24.98979603525165,台灣台北市文山區文山行政中心,台北市,文山區
Feature,4712.0,文山運動中心,Point,"121.56001773205912, 24.996399635607858",121.56001773205912,24.996399635607858,台灣台北市文山區興隆路三段173號,台北市,文山區
Feature,3782.0,文山運動中心,Point,"121.55985278362783, 24.996265269738437",121.55985278362783,24.99626526973844,台灣台北市文山區文山運動中心(興隆),台北市,文山區
Feature,1000452.0,文山運動中心,Point,"121.56091367925418, 24.996966324467337",121.56091367925418,24.996966324467333,台灣台北市文山區興隆路三段181巷5弄12號,台北市,文山區
Feature,1000857.0,文山運動中心,Point,"121.56042421451235, 24.997060372867963",121.56042421451237,24.997060372867967,台灣台北市文山區文山運動中心(萬芳),台北市,文山區
Feature,14422.0,文化大學,Point,"121.54652434815371, 25.138879077897343",121.54652434815372,25.138879077897343,台灣台北市士林區台2甲線200號,台北市,士林區
Feature,629.0,文化大學,Point,"121.54646408050961, 25.13806405893517",121.54646408050958,25.13806405893517,台灣台北市士林區文化大學,台北市,士林區
Feature,630.0,文化大學一,Point,"121.53980568952367, 25.13727655808274",121.5398056895237,25.13727655808274,台灣台北市士林區文化大學一,台北市,士林區
Feature,5057.0,文化區民活動中心,Point,"121.49708852548719, 25.137139247191207",121.4970885254872,25.13713924719121,台灣台北市北投區文化三路2號,台北市,北投區
Feature,5058.0,文化區民活動中心,Point,"121.4969807944251, 25.137264852901133",121.49698079442508,25.13726485290113,台灣台北市北投區文化區民活動中心,台北市,北投區
Feature,90.0,文化國小,Point,"121.49583623641279, 25.136559966060023",121.4958362364128,25.136559966060023,台灣台北市北投區中央北路二段21號,台北市,北投區
Feature,3962.0,文化國小,Point,"121.49558166746658, 25.13687164877847",121.49558166746658,25.136871648778467,台灣台北市北投區中央北路二段37號,台北市,北投區
Feature,12217.0,文和橋,Point,"121.59505263725593, 25.00258670722477",121.59505263725592,25.00258670722477,台灣台北市文山區文和橋,台北市,文山區
Feature,12218.0,文和橋,Point,"121.59519765618683, 25.00221556843805",121.59519765618684,25.002215568438054,台灣台北市文山區文和橋,台北市,文山區
Feature,2222.0,文昌街口,Point,"121.55232278762338, 25.031179854003547",121.55232278762337,25.03117985400355,台灣台北市大安區文昌街口,台北市,大安區
Feature,59001.0,文昌街口,Point,"121.55247855290726, 25.031407092699894",121.55247855290726,25.03140709269989,台灣台北市大安區安和路二段45號,台北市,大安區
Feature,94.0,文林國小,Point,"121.51514623215809, 25.10708135695387",121.51514623215807,25.10708135695387,台灣台北市北投區文林國小,台北市,北投區
Feature,55017.0,文林國小,Point,"121.5150363969527, 25.107599829106928",121.51503639695271,25.10759982910693,台灣台北市北投區文林國小,台北市,北投區
Feature,8670.0,文湖國小,Point,"121.56188583268452, 25.08425551184172",121.56188583268451,25.084255511841718,台灣台北市內湖區內湖路一段113號,台北市,內湖區
Feature,1008.0,文湖國小,Point,"121.56164777691271, 25.08409842619869",121.56164777691272,25.084098426198693,台灣台北市內湖區文湖國小,台北市,內湖區
Feature,1010.0,文德二號公園,Point,"121.58339, 25.07667",121.58339,25.07667,台灣台北市內湖區文德路208巷56號,台北市,內湖區
Feature,1001287.0,文德二號公園,Point,"121.583667, 25.077078",121.58366699999999,25.077078,台灣台北市內湖區文德二號公園,台北市,內湖區
Feature,1012.0,方濟中學,Point,"121.58991039248224, 25.077096977112433",121.58991039248224,25.077096977112433,台灣台北市內湖區方濟中學,台北市,內湖區
Feature,3996.0,方濟中學,Point,"121.59018302802124, 25.07711402806685",121.59018302802124,25.07711402806685,台灣台北市內湖區方濟中學,台北市,內湖區
Feature,20334.0,日月農莊,Point,"121.56938, 25.17961",121.56938000000001,25.17961,台灣台北市士林區日月農莊,台北市,士林區
Feature,50681.0,木南公園,Point,"121.57058544656712, 24.98539127491756",121.57058544656712,24.98539127491756,台灣台北市文山區木南公園,台北市,文山區
Feature,2521.0,木南公園,Point,"121.57007406522396, 24.984819576014356",121.57007406522396,24.98481957601436,台灣台北市文山區木南公園,台北市,文山區
Feature,56107.0,木柵,Point,"121.56650945920167, 24.98861248888045",121.56650945920168,24.98861248888045,台灣台北市文山區木柵路三段57號,台北市,文山區
Feature,1000439.0,木柵,Point,"121.56632040764268, 24.98847510976558",121.56632040764269,24.988475109765577,台灣台北市文山區木柵路三段80號,台北市,文山區
Feature,2405.0,木柵公園,Point,"121.56077, 24.98702",121.56076999999999,24.98702,台灣台北市文山區木柵公園,台北市,文山區
Feature,2404.0,木柵公園,Point,"121.56074, 24.98693",121.56074,24.986929999999997,台灣台北市文山區木柵公園,台北市,文山區
Feature,50682.0,木柵市場,Point,"121.56854670558518, 24.98837154042607",121.56854670558519,24.98837154042607,台灣台北市文山區木柵市場,台北市,文山區
Feature,2384.0,木柵市場,Point,"121.56868931471598, 24.9879719237069",121.56868931471598,24.987971923706898,台灣台北市文山區保儀路13巷29號,台北市,文山區
Feature,3989.0,木柵站,Point,"121.58388, 25.00236",121.58388000000001,25.00236,台灣台北市文山區木柵路五段38號,台北市,文山區
Feature,1001252.0,木柵高工,Point,"121.5707439388456, 24.996218244181122",121.5707439388456,24.996218244181122,台灣台北市文山區木柵高工(萬芳路),台北市,文山區
Feature,2386.0,木柵高工,Point,"121.57055164700314, 24.995997307180893",121.57055164700314,24.99599730718089,台灣台北市文山區萬芳路22號,台北市,文山區
Feature,1001413.0,木柵高工,Point,"121.57209975826999, 24.995801200224992",121.57209975827,24.995801200224985,台灣台北市文山區木柵路四段18號,台北市,文山區
Feature,1000543.0,木柵高工,Point,"121.57217423687236, 24.99618762213693",121.57217423687237,24.996187622136933,台灣台北市文山區木柵路四段41號,台北市,文山區
Feature,2387.0,木柵國小,Point,"121.57047542743862, 24.991589338853753",121.57047542743862,24.991589338853753,台灣台北市文山區木柵國小,台北市,文山區
Feature,56079.0,木柵國小,Point,"121.56998288706998, 24.991756303015013",121.56998288706998,24.991756303015013,台灣台北市文山區106縣道191號,台北市,文山區
Feature,2391.0,木新市場,Point,"121.55831481776123, 24.981115076499748",121.55831481776123,24.981115076499748,台灣台北市文山區木新市場,台北市,文山區
Feature,1000553.0,木新市場,Point,"121.5582464339727, 24.98097111635729",121.5582464339727,24.98097111635729,台灣台北市文山區木新路三段261號,台北市,文山區
Feature,20341.0,木新路口,Point,"121.55666373938999, 24.98201862526002",121.55666373938999,24.982018625260018,台灣台北市文山區木新區民活動中心,台北市,文山區
Feature,7001.0,木新路口,Point,"121.5537930461194, 24.981862089034443",121.55379304611941,24.981862089034447,台灣台北市文山區辛亥路七段76號,台北市,文山區
Feature,20342.0,木新路口,Point,"121.5569, 24.98181",121.5569,24.98181,台灣台北市文山區木新路三段310巷8號,台北市,文山區
Feature,2392.0,木新路口,Point,"121.55353557029852, 24.98175530402204",121.55353557029852,24.98175530402204,台灣台北市文山區木新路口,台北市,文山區
Feature,1000411.0,水井尾,Point,"121.53178920952598, 25.146037676266758",121.53178920952598,25.14603767626676,台灣台北市北投區水井尾,台北市,北投區
Feature,628.0,水井尾,Point,"121.53190234919626, 25.145910716141344",121.53190234919626,25.145910716141344,台灣台北市北投區水井尾,台北市,北投區
Feature,1001458.0,水雲澗,Point,"121.54405, 25.1644",121.54405,25.1644,台灣台北市北投區竹子湖路4-1號,台北市,北投區
Feature,2042.0,水塔,Point,"121.57483, 25.01856",121.57483,25.01856,台灣台北市信義區祥雲街14-1號,台北市,信義區
Feature,4837.0,水源地,Point,"121.51061, 25.14752",121.51061000000001,25.14752,台灣台北市北投區觀景台,台北市,北投區
Feature,1000762.0,水源路口,Point,"121.52508304532506, 25.02147289077708",121.52508304532508,25.021472890777076,台灣台北市中正區汀州路二段327號,台北市,中正區
Feature,1000559.0,水源路口,Point,"121.52482961328502, 25.021424364950285",121.52482961328501,25.021424364950285,台灣台北市中正區汀州路二段258號,台北市,中正區
Feature,60150.0,水墘,Point,"121.55443594840997, 25.12038771265699",121.55443594840996,25.12038771265699,台灣台北市士林區水墘,台北市,士林區
Feature,60149.0,水墘,Point,"121.55467, 25.12018",121.55467,25.120179999999998,台灣台北市士林區水墘,台北市,士林區
Feature,4988.0,水管路,Point,"121.534271, 25.12676",121.53427099999999,25.12676,台灣台北市士林區水管路,台北市,士林區
Feature,2393.0,水鋼琴社區,Point,"121.58098747388296, 24.981700292985362",121.58098747388296,24.98170029298536,台灣台北市文山區水鋼琴社區,台北市,文山區
Feature,4652.0,水鋼琴社區,Point,"121.58099272289297, 24.981916008682123",121.58099272289296,24.981916008682127,台灣台北市文山區水鋼琴社區,台北市,文山區
Feature,50050.0,世界山莊,Point,"121.56392, 25.00526",121.56392,25.00526,台灣台北市文山區萬美街二段59號,台北市,文山區
Feature,2502.0,世界山莊,Point,"121.56435, 25.00564",121.56435,25.00564,台灣台北市文山區世界山莊,台北市,文山區
Feature,2044.0,世貿二館(松智),Point,"121.5655373443839, 25.03472263801275",121.56553734438391,25.03472263801275,台灣台北市信義區101國際購物中心,台北市,信義區
Feature,6930.0,世貿二館(松廉),Point,"121.56677, 25.03397",121.56676999999999,25.03397,台灣台北市信義區松廉路5號,台北市,信義區
Feature,15120.0,世貿中心(基隆路),Point,"121.56015366635474, 25.033618377398543",121.56015366635474,25.033618377398547,台灣台北市信義區世貿中心(基隆路),台北市,信義區
Feature,2046.0,世貿中心(基隆路),Point,"121.5597213750887, 25.0336149513105",121.55972137508871,25.0336149513105,台灣台北市信義區基隆路一段434號,台北市,信義區
Feature,4645.0,世貿中心(莊敬),Point,"121.56120438109286, 25.031429185941686",121.56120438109285,25.03142918594169,台灣台北市信義區世貿中心(莊敬),台北市,信義區
Feature,4646.0,世貿中心(莊敬),Point,"121.56134905669273, 25.031216318186893",121.56134905669272,25.03121631818689,台灣台北市信義區信義路五段24巷5弄8號,台北市,信義區
Feature,2047.0,世貿新城,Point,"121.5651, 25.03084",121.5651,25.030839999999998,台灣台北市信義區松智路14號,台北市,信義區
Feature,50156.0,世貿新城,Point,"121.56547, 25.03081",121.56546999999999,25.03081,台灣台北市信義區世貿新城,台北市,信義區
Feature,56098.0,世新大學,Point,"121.54407494627814, 24.988575471785538",121.54407494627813,24.988575471785534,台灣台北市文山區世新大學,台北市,文山區
Feature,2394.0,世新大學,Point,"121.5438300082649, 24.988463020308675",121.5438300082649,24.988463020308675,台灣台北市文山區世新大學,台北市,文山區
Feature,4863.0,主教公署,Point,"121.55232, 25.02513",121.55232,25.025129999999997,台灣台北市大安區樂利路119號,台北市,大安區
Feature,2238.0,主教公署,Point,"121.55213614749997, 25.025277345015954",121.55213614749997,25.025277345015954,台灣台北市大安區樂利路90號,台北市,大安區
Feature,4877.0,仙岩公園,Point,"121.5493, 24.99759",121.5493,24.99759,台灣台北市文山區仙岩路16巷32號,台北市,文山區
Feature,1000932.0,北平西路,Point,"121.51203513254424, 25.04826988254867",121.51203513254423,25.04826988254867,台灣台北市中正區北平西路78號,台北市,中正區
Feature,1213.0,北安國中,Point,"121.54152419534576, 25.077685710213164",121.54152419534576,25.077685710213164,台灣台北市中山區明水路325號,台北市,中山區
Feature,112.0,北投公園,Point,"121.50407584145714, 25.136308144771643",121.50407584145714,25.136308144771643,台灣台北市北投區北投公園,台北市,北投區
Feature,113.0,北投公園,Point,"121.50434992581658, 25.13650495992997",121.50434992581657,25.136504959929965,台灣台北市北投區北投公園,台北市,北投區
Feature,1001328.0,北投公園(中山),Point,"121.50518478412417, 25.136975707289427",121.50518478412417,25.13697570728943,台灣台北市北投區北投公園(中山路),台北市,北投區
Feature,1001332.0,北投分局,Point,"121.50104289087997, 25.133225017258003",121.50104289087996,25.133225017258006,台灣台北市北投區北投分局,台北市,北投區
Feature,111.0,北投分局,Point,"121.50095947485997, 25.132987460250984",121.50095947485997,25.132987460250984,台灣台北市北投區光明路100巷4弄6號,台北市,北投區
Feature,115.0,北投文物館,Point,"121.51404, 25.13877",121.51404,25.13877,台灣台北市北投區北投文物館,台北市,北投區
Feature,114.0,北投文物館,Point,"121.514, 25.13864",121.514,25.13864,台灣台北市北投區北投文物館,台北市,北投區
Feature,20227.0,北投文物館,Point,"121.5142, 25.138751",121.5142,25.138751,台灣台北市北投區北投文物館,台北市,北投區
Feature,7243.0,北投市場(公館),Point,"121.50369, 25.13267",121.50368999999999,25.13267,台灣台北市北投區北投市場(公館路),台北市,北投區
Feature,116.0,北投市場(磺港),Point,"121.50318, 25.13244",121.50318,25.13244,台灣台北市北投區北投市場(磺港路),台北市,北投區
Feature,1000351.0,北投站,Point,"121.4920578482264, 25.1447344228463",121.49205784822641,25.1447344228463,台灣台北市北投區北投站,台北市,北投區
Feature,118.0,北投站,Point,"121.49207430765715, 25.144400870801206",121.49207430765716,25.14440087080121,台灣台北市北投區北投站,台北市,北投區
Feature,50057.0,北投國小,Point,"121.50135997669686, 25.133615257704882",121.50135997669685,25.13361525770488,台灣台北市北投區中央北路一段4號,台北市,北投區
Feature,120.0,北投國小,Point,"121.50074936360231, 25.133855743078776",121.50074936360231,25.133855743078776,台灣台北市北投區北投國小,台北市,北投區
Feature,121.0,北投國中,Point,"121.50384, 25.13431",121.50384,25.13431,台灣台北市北投區光明路180號,台北市,北投區
Feature,478.0,北投綠色圖書館,Point,"121.50603542327997, 25.135963453109014",121.50603542327995,25.13596345310901,台灣台北市北投區光明路230號,台北市,北投區
Feature,2395.0,北政國中,Point,"121.5799235963417, 24.98509701191775",121.5799235963417,24.98509701191775,"台灣台北市文山區指南路三段8,10號",台北市,文山區
Feature,2397.0,北政國中,Point,"121.580138658928, 24.984940466421822",121.58013865892799,24.984940466421822,台灣台北市文山區指南路三段23號,台北市,文山區
Feature,1909.0,北商學院(杭州),Point,"121.52603726586653, 25.04081666554193",121.5260372658665,25.04081666554193,台灣台北市中正區杭州南路一段49號,台北市,中正區
Feature,1903.0,北商學院(濟南),Point,"121.52477, 25.04197",121.52476999999999,25.041970000000003,台灣台北市中正區臺北商大(濟南),台北市,中正區
Feature,1623.0,北興宮,Point,"121.59050900859995, 25.03735670415803",121.59050900859995,25.03735670415803,台灣台北市南港區成福路274號,台北市,南港區
Feature,1001366.0,北興宮,Point,"121.59042001586997, 25.037385424861004",121.59042001586997,25.037385424861004,台灣台北市南港區成福路266號,台北市,南港區
Feature,2714.0,北藝大行政大樓,Point,"121.47042594953078, 25.133906356726794",121.47042594953078,25.1339063567268,台灣台北市北投區北藝大行政大樓,台北市,北投區
Feature,311.0,北藝大音樂廳,Point,"121.46865234616617, 25.132052657235203",121.46865234616615,25.132052657235203,台灣台北市北投區北藝大音樂廳,台北市,北投區
Feature,50067.0,北藝大校門口,Point,"121.46601115429459, 25.1290198645823",121.46601115429459,25.1290198645823,台灣台北市北投區北藝大校門口,台北市,北投區
Feature,1000910.0,北藝大游泳館,Point,"121.47299409324998, 25.135939584448984",121.47299409325,25.135939584448987,台灣台北市北投區北藝大游泳館,台北市,北投區
Feature,401.0,北藝大圖書館,Point,"121.47135991911308, 25.134900297764307",121.47135991911308,25.13490029776431,台灣台北市北投區學園路1號,台北市,北投區
Feature,2715.0,北藝大藝文生態館,Point,"121.46606680168227, 25.13128432343125",121.46606680168229,25.13128432343125,台灣台北市北投區北藝大藝文生態館,台北市,北投區
Feature,9469.0,半嶺,Point,"121.56888239020999, 25.118865998875982",121.56888239020999,25.118865998875986,台灣台北市士林區至善路三段71巷23號,台北市,士林區
Feature,9464.0,半嶺,Point,"121.56877, 25.11873",121.56877,25.11873,台灣台北市士林區半嶺,台北市,士林區
Feature,658.0,半嶺一,Point,"121.56819, 25.11859",121.56818999999999,25.11859,台灣台北市士林區半嶺一,台北市,士林區
Feature,2290.0,半嶺一,Point,"121.56796, 25.11869",121.56796000000001,25.11869,台灣台北市士林區至善路三段71巷13號,台北市,士林區
Feature,3905.0,古亭市場,Point,"121.52053, 25.02681",121.52053000000001,25.02681,台灣台北市中正區南福板溪(南昌公園),台北市,中正區
Feature,1907.0,古亭市場,Point,"121.52044005885999, 25.02665374683603",121.52044005886,25.026653746836033,台灣台北市中正區南福板溪站(南昌家具街),台北市,中正區
Feature,1001486.0,古亭地政事務所,Point,"121.53628851475102, 25.00071414838798",121.53628851475102,25.00071414838798,台灣台北市文山區古亭地政事務所,台北市,文山區
Feature,1001782.0,古亭地政事務所,Point,"121.53613208941347, 25.000637372217277",121.53613208941348,25.000637372217284,台灣台北市文山區古亭地政事務所,台北市,文山區
Feature,1748.0,古亭國中,Point,"121.50939793120997, 25.02479027833499",121.50939793120995,25.02479027833499,台灣台北市萬華區中華路二段598-3號,台北市,萬華區
Feature,4601.0,古亭國中,Point,"121.50983760978997, 25.024795546730946",121.50983760978994,25.024795546730946,台灣台北市中正區古亭國中,台北市,中正區
Feature,7612.0,台北大學(台北校區),Point,"121.53867250792999, 25.05488073666302",121.53867250792999,25.054880736663016,台灣台北市中山區長春路221號,台北市,中山區
Feature,7611.0,台北大學(台北校區),Point,"121.53862591666999, 25.054618982766005",121.53862591667,25.054618982766005,台灣台北市中山區長春路252號,台北市,中山區
Feature,1593.0,台北市區監理所,Point,"121.55767439186006, 25.04696755035923",121.55767439186006,25.04696755035923,"台灣台北市松山區YouBike1.0_Ln. 22, Guangfu S. Rd.",台北市,松山區
Feature,60137.0,台北市區監理所,Point,"121.55795960438662, 25.046443596181415",121.55795960438661,25.046443596181412,台灣台北市松山區光復南路35號,台北市,松山區
Feature,6715.0,台北車站(公園),Point,"121.51698507241997, 25.044293849710005",121.51698507241994,25.04429384971,台灣台北市中正區公園路103號,台北市,中正區
Feature,1885.0,台北車站(東側門),Point,"121.51813, 25.04748",121.51813,25.04748,台灣台北市中正區臺北車站(東三門),台北市,中正區
Feature,911.0,台北海院,Point,"121.47067609325997, 25.108525295349974",121.47067609325994,25.10852529534997,台灣台北市士林區台北海大,台北市,士林區
Feature,1001402.0,台北海院,Point,"121.47085483928997, 25.10818883386396",121.47085483928996,25.10818883386396,台灣台北市士林區延平北路九段235號,台北市,士林區
Feature,1210.0,台北漁市,Point,"121.53704878902997, 25.066142721633994",121.53704878902997,25.066142721633998,台灣台北市中山區建國北路三段93巷5弄3號,台北市,中山區
Feature,1208.0,台北漁市,Point,"121.53680483795998, 25.06585474402398",121.53680483795998,25.06585474402398,台灣台北市中山區臺北漁市,台北市,中山區
Feature,1000183.0,台北銀行,Point,"121.53007, 25.056756",121.53007,25.056756,台灣台北市中山區吉林路164號,台北市,中山區
Feature,1001087.0,台北銀行,Point,"121.53027969940999, 25.05615749532998",121.53027969941,25.05615749532998,台灣台北市中山區吉林路101號,台北市,中山區
Feature,13105.0,台北學苑,Point,"121.54930353797478, 25.05258",121.54930353797478,25.05258,台灣台北市松山區南京敦化路口(小巨蛋),台北市,松山區
Feature,2052.0,台北醫學大學附設醫院,Point,"121.5633, 25.02729",121.5633,25.02729,台灣台北市信義區吳興街243號,台北市,信義區
Feature,20357.0,台安醫院,Point,"121.54543, 25.04807",121.54543000000001,25.048070000000003,台灣台北市松山區八德路二段389號,台北市,松山區
Feature,1000155.0,台泥大樓(馬階醫院),Point,"121.52271706119087, 25.060817011406883",121.52271706119087,25.06081701140689,台灣台北市中山區台1甲線114號,台北市,中山區
Feature,1000158.0,台泥大樓(馬階醫院),Point,"121.52316147809296, 25.060803712320006",121.52316147809296,25.060803712320013,台灣台北市中山區中山北路二段113-2號,台北市,中山區
Feature,50017.0,台肥新村,Point,"121.60361352760998, 25.053856543524017",121.60361352760998,25.053856543524017,台灣台北市南港區南港路二段70號,台北市,南港區
Feature,1000271.0,台肥新村,Point,"121.60301463176997, 25.053635971404027",121.60301463176997,25.053635971404034,台灣台北市南港區台肥新村,台北市,南港區
Feature,2231.0,台電大樓,Point,"121.53137066037952, 25.017583850085646",121.53137066037952,25.01758385008565,台灣台北市中正區台電大樓,台北市,中正區
Feature,2230.0,台電大樓,Point,"121.5306164467725, 25.018477953019662",121.5306164467725,25.018477953019662,台灣台北市大安區台電大樓,台北市,大安區
Feature,1218.0,台電台北北區營業處,Point,"121.52770346165887, 25.091208919564174",121.52770346165887,25.09120891956417,台灣台北市士林區台電台北北區營業處,台北市,士林區
Feature,1000264.0,台電台北北區營業處,Point,"121.52739193616996, 25.090699892215998",121.52739193616995,25.090699892216,台灣台北市士林區台電台北北區營業處,台北市,士林區
Feature,2396.0,司法新村,Point,"121.56594, 24.98364",121.56594,24.98364,台灣台北市文山區保儀路167號,台北市,文山區
Feature,1000454.0,司法新村,Point,"121.56585, 24.98392",121.56585,24.98392,台灣台北市文山區保儀路138巷5號,台北市,文山區
Feature,4029.0,司法新村,Point,"121.56692922388035, 24.983410815888888",121.56692922388036,24.98341081588889,台灣台北市文山區木新路二段234號,台北市,文山區
Feature,4028.0,司法新村,Point,"121.56653058268645, 24.983105222041797",121.56653058268644,24.983105222041804,台灣台北市文山區司法新村,台北市,文山區
Feature,1616.0,四分里一,Point,"121.61702364417998, 25.037701215079952",121.61702364418,25.037701215079952,台灣台北市南港區九如里一,台北市,南港區
Feature,1620.0,四分里一,Point,"121.61690145882997, 25.03813812863502",121.61690145882996,25.03813812863502,台灣台北市南港區研究院路二段166號,台北市,南港區
Feature,1618.0,四分里二,Point,"121.61604588954998, 25.034836830992994",121.61604588954998,25.034836830992994,台灣台北市南港區九如里二,台北市,南港區
Feature,1621.0,四分里二,Point,"121.61617084539996, 25.035004827803977",121.61617084539995,25.035004827803977,台灣台北市南港區九如里二,台北市,南港區
Feature,9450.0,外雙溪(至善),Point,"121.54695930289998, 25.098549223312006",121.54695930289999,25.09854922331201,台灣台北市士林區至善路二段123號,台北市,士林區
Feature,659.0,外雙溪(至善),Point,"121.54700580240996, 25.09823968876198",121.54700580240996,25.09823968876198,台灣台北市士林區外雙溪(至善),台北市,士林區
Feature,3948.0,外雙溪(故宮),Point,"121.54727, 25.09666",121.54727,25.09666,台灣台北市士林區外雙溪(故宮),台北市,士林區
Feature,660.0,外雙溪(故宮),Point,"121.54687582819997, 25.097173637741985",121.54687582819996,25.097173637741985,台灣台北市士林區故宮路18號,台北市,士林區
Feature,9490.0,外雙溪橋,Point,"121.55796061225998, 25.11146528085099",121.55796061225998,25.111465280850986,台灣台北市士林區外雙溪橋,台北市,士林區
Feature,661.0,外雙溪橋,Point,"121.55823740492997, 25.111590717378967",121.55823740492997,25.11159071737897,台灣台北市士林區外雙溪橋,台北市,士林區
Feature,4854.0,市民大道八段,Point,"121.60259947486998, 25.052738968351996",121.60259947486998,25.052738968352,台灣台北市南港區市民大道八段,台北市,南港區
Feature,4853.0,市民大道八段,Point,"121.60257265277997, 25.05256850676701",121.60257265277995,25.05256850676701,台灣台北市南港區市民大道八段,台北市,南港區
Feature,13104.0,市民大道口,Point,"121.54919411044996, 25.045757950158016",121.54919411044996,25.045757950158013,台灣台北市松山區敦化南路1段57號,台北市,松山區
Feature,4042.0,市民光復路口,Point,"121.55854401017604, 25.045499368881245",121.55854401017605,25.045499368881245,台灣台北市松山區市民大道五段17號,台北市,松山區
Feature,1500.0,市民光復路口,Point,"121.55910146259079, 25.045437618884918",121.55910146259079,25.04543761888492,台灣台北市信義區市民大道五段4號,台北市,信義區
Feature,60124.0,市民住宅,Point,"121.55769108944742, 25.03667642336503",121.55769108944742,25.03667642336503,台灣台北市信義區市民住宅,台北市,信義區
Feature,2054.0,市民住宅,Point,"121.55744383339905, 25.036608990975495",121.55744383339905,25.03660899097549,台灣台北市大安區市民住宅,台北市,大安區
Feature,1001118.0,市民延吉街口,Point,"121.55388, 25.04463",121.55388,25.044629999999998,台灣台北市松山區延吉街67號,台北市,松山區
Feature,1501.0,市民延吉街口,Point,"121.55438, 25.044426",121.55438000000001,25.044426,台灣台北市大安區市民大道四段194號,台北市,大安區
Feature,1001124.0,市民林森路口,Point,"121.52318457787997, 25.048015173711963",121.52318457787995,25.048015173711963,台灣台北市中山區市民林森北路口,台北市,中山區
Feature,1222.0,市民林森路口,Point,"121.52328240244995, 25.047725283170966",121.52328240244995,25.047725283170966,台灣台北市中正區市民林森北路口,台北市,中正區
Feature,1223.0,市民復興路口,Point,"121.54308874602995, 25.044942418467027",121.54308874602995,25.04494241846703,台灣台北市中山區八德路二段312巷50弄5號,台北市,中山區
Feature,4044.0,市民敦化路口,Point,"121.54998, 25.04487",121.54998,25.04487,台灣台北市松山區市民大道四段123號,台北市,松山區
Feature,13109.0,市民敦化路口,Point,"121.54879696808997, 25.045271125428968",121.54879696808996,25.045271125428968,台灣台北市松山區市民敦化路口,台北市,松山區
Feature,4043.0,市民敦化路口,Point,"121.54955, 25.04465",121.54955,25.04465,台灣台北市大安區敦化南路1段111號,台北市,大安區
Feature,1912.0,市立大學附小,Point,"121.51488967997564, 25.03642308070303",121.51488967997564,25.03642308070303,台灣台北市中正區市立大學附小,台北市,中正區
Feature,2055.0,市立工農,Point,"121.57261552120205, 25.04085410775798",121.57261552120205,25.04085410775798,台灣台北市信義區忠孝東路248號,台北市,信義區
Feature,20399.0,市立工農(正門),Point,"121.57171, 25.03947",121.57171000000001,25.03947,台灣台北市信義區忠孝東路五段236巷30號,台北市,信義區
Feature,5039.0,市立中醫醫院,Point,"121.50533, 25.04463",121.50533,25.044629999999998,台灣台北市萬華區昆明街35-1號,台北市,萬華區
Feature,1001485.0,市立圖書館(景美分館),Point,"121.53566964619871, 25.003050099912187",121.53566964619871,25.00305009991219,台灣台北市文山區市立圖書館(景美分館),台北市,文山區
Feature,1001480.0,市立圖書館(景美分館),Point,"121.5353790700525, 25.00316013521578",121.53537907005251,25.003160135215783,台灣台北市文山區汀洲路四段23號,台北市,文山區
Feature,1510.0,市立體育場,Point,"121.54924490806748, 25.0492800961815",121.5492449080675,25.0492800961815,台灣台北市松山區敦化北路3號,台北市,松山區
Feature,4171.0,市政府(市府),Point,"121.5633881206859, 25.038567423897995",121.5633881206859,25.038567423897995,台灣台北市信義區市政府(市府),台北市,信義區
Feature,2063.0,市政府(市府),Point,"121.56373200103059, 25.038277938844896",121.5637320010306,25.038277938844896,台灣台北市信義區市政府(市府),台北市,信義區
Feature,2066.0,市政府(松高),Point,"121.5647852102201, 25.039058163427594",121.5647852102201,25.039058163427597,台灣台北市信義區松高路100號,台北市,信義區
Feature,4031.0,市政府(松智),Point,"121.56557632638997, 25.036850054958",121.56557632638996,25.036850054958,台灣台北市信義區市政府(松智),台北市,信義區
Feature,6722.0,市政府(松智),Point,"121.56534341104998, 25.036834581066977",121.56534341104998,25.036834581066977,台灣台北市信義區市政府(松智),台北市,信義區
Feature,2069.0,市政府(松壽),Point,"121.56480288591997, 25.03580663391096",121.56480288591995,25.035806633910962,台灣台北市信義區松壽路8號,台北市,信義區
Feature,2067.0,市政府(松壽),Point,"121.56460160062284, 25.036018979851256",121.56460160062285,25.036018979851256,台灣台北市信義區市政府(松壽),台北市,信義區
Feature,2072.0,市議會,Point,"121.56219488494074, 25.036997393973095",121.56219488494074,25.03699739397309,台灣台北市信義區市議會,台北市,信義區
Feature,672.0,平頂古圳步道口,Point,"121.58682, 25.12814",121.58681999999999,25.12814,台灣台北市士林區平頂古圳步道口,台北市,士林區
Feature,14408.0,平等里,Point,"121.57645189566998, 25.131546491409956",121.57645189566998,25.13154649140996,台灣台北市士林區平等里,台北市,士林區
Feature,673.0,平等里,Point,"121.57643854232997, 25.131462648165993",121.57643854232995,25.131462648166,台灣台北市士林區平菁街82號,台北市,士林區
Feature,9475.0,平等里,Point,"121.57661859506997, 25.131432843374995",121.57661859506996,25.131432843374995,台灣台北市士林區平菁街91號,台北市,士林區
Feature,674.0,平等國小,Point,"121.57647542542699, 25.1298792697111",121.57647542542699,25.129879269711104,台灣台北市士林區平等國小,台北市,士林區
Feature,9479.0,平等國小,Point,"121.57661343092973, 25.129774590441656",121.57661343092971,25.129774590441656,台灣台北市士林區平等國小,台北市,士林區
Feature,675.0,平菁街116巷口,Point,"121.57268177909998, 25.124120286217984",121.57268177909998,25.124120286217984,台灣台北市士林區平菁街118號,台北市,士林區
Feature,14405.0,平菁街116巷口,Point,"121.57294, 25.12412",121.57293999999999,25.12412,台灣台北市士林區平菁街116巷口,台北市,士林區
Feature,1000954.0,平菁街28巷,Point,"121.57221026527564, 25.136545440793082",121.57221026527564,25.136545440793082,台灣台北市士林區平菁街28巷,台北市,士林區
Feature,1231.0,正守公園,Point,"121.52870924172997, 25.048140934791977",121.52870924172994,25.048140934791974,台灣台北市中山區正守公園,台北市,中山區
Feature,1000847.0,正守公園,Point,"121.52874176074995, 25.04827485267897",121.52874176074995,25.048274852678965,台灣台北市中山區長安東路一段89號,台北市,中山區
Feature,3934.0,正義郵局,Point,"121.53835131135341, 25.041802669669686",121.5383513113534,25.04180266966969,台灣台北市大安區忠孝東路三段130-166號,台北市,大安區
Feature,2234.0,正義郵局,Point,"121.53904032607518, 25.04155822316471",121.5390403260752,25.04155822316471,台灣台北市大安區忠孝東路三段188-1號,台北市,大安區
Feature,1016.0,正聖堂,Point,"121.57632655951997, 25.053968139101972",121.57632655951996,25.05396813910197,台灣台北市內湖區正聖堂,台北市,內湖區
Feature,1417.0,民生西路口,Point,"121.51799767060103, 25.056572590262352",121.51799767060105,25.056572590262352,台灣台北市大同區承德路二段50號,台北市,大同區
Feature,10203.0,民生西路口,Point,"121.51829, 25.05801",121.51829,25.05801,台灣台北市大同區承德路二段149號,台北市,大同區
Feature,20252.0,民生西路口(大稻埕碼頭),Point,"121.51176, 25.05625",121.51176000000001,25.05625,台灣台北市大同區延平北路二段85號,台北市,大同區
Feature,1418.0,民生西路口(大稻埕碼頭),Point,"121.51140032141997, 25.057928536991955",121.51140032141994,25.057928536991955,台灣台北市大同區延平北路二段154號,台北市,大同區
Feature,1419.0,民生西路口(大稻埕碼頭),Point,"121.51166024156562, 25.056270798927365",121.51166024156562,25.056270798927365,台灣台北市大同區延平北路二段85號,台北市,大同區
Feature,1420.0,民生西寧路口,Point,"121.50904871659998, 25.056388681306988",121.50904871659998,25.056388681306988,台灣台北市大同區民生西寧路口,台北市,大同區
Feature,1001086.0,民生東路口,Point,"121.53011234721995, 25.058404644602977",121.53011234721994,25.058404644602977,台灣台北市中山區吉林路196號,台北市,中山區
Feature,6990.0,民生東路口,Point,"121.54440412060234, 25.058270334653617",121.54440412060234,25.05827033465361,台灣台北市松山區復興北路303號,台北市,松山區
Feature,1001089.0,民生東路口,Point,"121.530273, 25.05836",121.530273,25.05836,台灣台北市中山區吉林路137號2號,台北市,中山區
Feature,1000074.0,民生社區活動中心,Point,"121.56125154604158, 25.058831375809323",121.56125154604159,25.058831375809326,台灣台北市松山區民生東路五段127號,台北市,松山區
Feature,1506.0,民生社區活動中心,Point,"121.56097867670545, 25.058566454737655",121.56097867670543,25.058566454737647,台灣台北市松山區民生社區活動中心,台北市,松山區
Feature,1421.0,民生重慶路口,Point,"121.51369271163999, 25.057150484238814",121.51369271163999,25.05715048423881,台灣台北市大同區民生重慶路口,台北市,大同區
Feature,1422.0,民生重慶路口,Point,"121.51382581674858, 25.056766023685096",121.51382581674858,25.056766023685093,台灣台北市大同區民生重慶路口,台北市,大同區
Feature,1000026.0,民生國中,Point,"121.56769489566999, 25.060189036091955",121.56769489566999,25.060189036091952,台灣台北市松山區民生國中,台北市,松山區
Feature,1507.0,民生國中,Point,"121.56792676508363, 25.059563014239984",121.56792676508364,25.059563014239984,台灣台北市松山區民生國中,台北市,松山區
Feature,1561.0,民生敦化路口,Point,"121.54797947716999, 25.057587653993963",121.54797947716999,25.057587653993963,台灣台北市松山區民生東路三段156號,台北市,松山區
Feature,13106.0,民生敦化路口,Point,"121.54903951337567, 25.058111988537718",121.54903951337569,25.058111988537718,台灣台北市松山區民生敦化路口,台北市,松山區
Feature,10418.0,民生敦化路口,Point,"121.54781037566998, 25.057865687028986",121.54781037566998,25.057865687028986,台灣台北市松山區民生東路三段131號,台北市,松山區
Feature,1749.0,民和街口,Point,"121.49523257672998, 25.02425231362596",121.49523257672999,25.02425231362596,台灣台北市萬華區民和街口,台北市,萬華區
Feature,20243.0,民和街口,Point,"121.49501, 25.024334",121.49501000000001,25.024334,台灣台北市萬華區寶興街158號,台北市,萬華區
Feature,1423.0,民族西路,Point,"121.51274884654997, 25.068586409044975",121.51274884654995,25.06858640904497,台灣台北市大同區民族西路234號,台北市,大同區
Feature,1424.0,民族承德路口,Point,"121.51823244907997, 25.067889686483",121.51823244907995,25.067889686483003,台灣台北市大同區承德路三段146號,台北市,大同區
Feature,10206.0,民族承德路口,Point,"121.51859423189369, 25.06933209056739",121.51859423189369,25.06933209056739,台灣台北市大同區民族承德路口,台北市,大同區
Feature,6664.0,民族東路口,Point,"121.52805597654574, 25.067635975015868",121.52805597654573,25.067635975015868,台灣台北市中山區新生北路三段91-4號,台北市,中山區
Feature,1233.0,民族東路口,Point,"121.52763969684324, 25.06740362169831",121.52763969684324,25.067403621698308,台灣台北市中山區民族東路口,台北市,中山區
Feature,1001200.0,民族重慶路口,Point,"121.51447, 25.06869",121.51446999999999,25.06869,台灣台北市大同區民族西路205號,台北市,大同區
Feature,1000167.0,民族重慶路口,Point,"121.5137829681531, 25.068486605355083",121.5137829681531,25.068486605355087,台灣台北市大同區民族重慶路口,台北市,大同區
Feature,1000066.0,民族重慶路口,Point,"121.5137142818381, 25.068840976627783",121.51371428183809,25.068840976627783,台灣台北市大同區民族重慶路口,台北市,大同區
Feature,1017.0,民權大橋,Point,"121.57961667353736, 25.066882788600424",121.57961667353737,25.066882788600427,台灣台北市內湖區民權大橋,台北市,內湖區
Feature,8602.0,民權大橋,Point,"121.57893193407374, 25.066974187000092",121.57893193407374,25.06697418700009,台灣台北市內湖區民權大橋,台北市,內湖區
Feature,1427.0,民權大龍街口,Point,"121.51632373738158, 25.063099858794537",121.51632373738157,25.063099858794537,台灣台北市大同區民權西路157號,台北市,大同區
Feature,1235.0,民權中山路口,Point,"121.52230093484995, 25.06271419429398",121.52230093484995,25.06271419429398,台灣台北市中山區民權中山路口,台北市,中山區
Feature,1236.0,民權中山路口,Point,"121.52300244907998, 25.062853555076032",121.52300244908,25.062853555076032,台灣台北市中山區民權中山路口,台北市,中山區
Feature,1511.0,民權公園,Point,"121.55700148710999, 25.061977187211017",121.55700148711,25.061977187211017,台灣台北市松山區民權公園,台北市,松山區
Feature,1000112.0,民權吉林路口,Point,"121.53006370303997, 25.062546642014958",121.53006370303996,25.06254664201496,台灣台北市中山區民權吉林路口,台北市,中山區
Feature,1000162.0,民權吉林路口,Point,"121.52911405504999, 25.062691772321006",121.52911405504999,25.06269177232101,台灣台北市中山區民權東路二段21號,台北市,中山區
Feature,4158.0,民權東路口,Point,"121.552, 25.06145",121.552,25.06145,台灣台北市松山區民權東路口,台北市,松山區
Feature,1000128.0,民權東路口,Point,"121.54961864285998, 25.061587847816952",121.54961864286,25.06158784781695,台灣台北市松山區民權東路口,台北市,松山區
Feature,8674.0,民權東路六段(民權敦品),Point,"121.59933, 25.06701",121.59933000000001,25.06701,台灣台北市內湖區民權東路六段213號,台北市,內湖區
Feature,1019.0,民權東路六段(民權敦品),Point,"121.59843, 25.06707",121.59843000000001,25.06707,台灣台北市內湖區民權東路六段(民權敦品),台北市,內湖區
Feature,6705.0,民權松江路口,Point,"121.53321393501997, 25.06211898923298",121.53321393501994,25.062118989232978,台灣台北市中山區民權松江路口,台北市,中山區
Feature,1239.0,民權松江路口,Point,"121.53285894973999, 25.06247709724497",121.53285894974,25.06247709724497,台灣台北市中山區民權松江路口,台北市,中山區
Feature,1240.0,民權松江路口,Point,"121.53343883432997, 25.062524859336957",121.53343883432994,25.062524859336964,台灣台北市中山區行天宮地下道東邊十號,台北市,中山區
Feature,4081.0,民權建國路口,Point,"121.53746, 25.06248317141795",121.53746000000001,25.062483171417952,台灣台北市中山區民權建國路口,台北市,中山區
Feature,1242.0,民權建國路口,Point,"121.53649839632997, 25.062368887351024",121.53649839632996,25.06236888735102,台灣台北市中山區民權建國路口,台北市,中山區
Feature,1514.0,民權國小,Point,"121.56047720237996, 25.062403094528005",121.56047720237996,25.062403094528,台灣台北市松山區民權國小,台北市,松山區
Feature,8650.0,民權國小,Point,"121.56053457671997, 25.062653733993976",121.56053457671995,25.06265373399398,台灣台北市松山區民權國小,台北市,松山區
Feature,1000326.0,民權復興路口,Point,"121.54386917410997, 25.062271851633025",121.54386917410996,25.062271851633025,台灣台北市中山區民權復興路口,台北市,中山區
Feature,1000329.0,民權復興路口,Point,"121.54465238772997, 25.06222037411398",121.54465238772995,25.06222037411398,台灣台北市松山區民權復興路口,台北市,松山區
Feature,60134.0,民權敦化路口,Point,"121.54807918401998, 25.06213427244601",121.54807918401998,25.062134272446013,台灣台北市松山區民權東路三段175號,台北市,松山區
Feature,1244.0,民權敦化路口,Point,"121.54773040740997, 25.062038247265033",121.54773040740996,25.062038247265033,台灣台北市松山區民權敦化路口,台北市,松山區
Feature,149.0,民權隧道,Point,"121.60483953372996, 25.071908371553953",121.60483953372996,25.071908371553956,台灣台北市內湖區民權東路六段272號,台北市,內湖區
Feature,50443.0,民權隧道,Point,"121.60483947485999, 25.072367397936983",121.60483947486,25.072367397936983,台灣台北市內湖區民權東路六段473號,台北市,內湖區
Feature,8675.0,民權隧道二,Point,"121.60173154365997, 25.068170770146036",121.60173154365995,25.06817077014604,台灣台北市內湖區民權東路六段289號,台北市,內湖區
Feature,1024.0,民權隧道二,Point,"121.60204294246998, 25.068135418761987",121.60204294246998,25.068135418761987,台灣台北市內湖區民權東路六段252號,台北市,內湖區
Feature,1000186.0,民權龍江路口,Point,"121.54060032754995, 25.062342066475978",121.54060032754995,25.062342066475978,台灣台北市中山區民權龍江路口,台北市,中山區
Feature,1000184.0,民權龍江路口,Point,"121.54107139020996, 25.062410624249964",121.54107139020996,25.062410624249964,台灣台北市中山區民權龍江路口,台北市,中山區
Feature,1001273.0,永公路500巷,Point,"121.57034002862997, 25.135987578296998",121.57034002862996,25.135987578297,台灣台北市士林區永公路500巷,台北市,士林區
Feature,1001271.0,永公路一,Point,"121.55306273015998, 25.11460143651795",121.55306273016,25.114601436517948,台灣台北市士林區永公路38號,台北市,士林區
Feature,662.0,永公路一,Point,"121.55288889087997, 25.114568872833967",121.55288889087996,25.114568872833967,台灣台北市士林區永公路77號,台北市,士林區
Feature,14415.0,永公路二,Point,"121.55439, 25.11594",121.55438999999998,25.11594,台灣台北市士林區永公路二,台北市,士林區
Feature,663.0,永公路二,Point,"121.55418, 25.1158",121.55418,25.1158,台灣台北市士林區永公路二,台北市,士林區
Feature,664.0,永公路三,Point,"121.55671856084997, 25.12105095873599",121.55671856084996,25.121050958735992,台灣台北市士林區永公路三,台北市,士林區
Feature,14413.0,永公路三,Point,"121.55687573015996, 25.12116695634702",121.55687573015994,25.121166956347018,台灣台北市士林區永公路245號,台北市,士林區
Feature,14416.0,永公橋,Point,"121.55073, 25.11363",121.55073,25.11363,台灣台北市士林區永公橋,台北市,士林區
Feature,665.0,永公橋,Point,"121.55065, 25.1137",121.55065,25.1137,台灣台北市士林區永公橋,台北市,士林區
Feature,36108.0,永平路口,Point,"121.50464676322997, 25.09236687940598",121.50464676322996,25.09236687940598,台灣台北市士林區社中街342號,台北市,士林區
Feature,667.0,永平路口,Point,"121.50476894973998, 25.092273723416003",121.50476894974,25.092273723416003,台灣台北市士林區社中街336號,台北市,士林區
Feature,4828.0,永吉松信路口,Point,"121.57202, 25.04521",121.57202,25.04521,台灣台北市信義區松信路91號,台北市,信義區
Feature,4827.0,永吉松信路口,Point,"121.57218, 25.0452",121.57218,25.0452,台灣台北市信義區松信路91號,台北市,信義區
Feature,2056.0,永吉國小,Point,"121.57763513483062, 25.042783637369617",121.57763513483063,25.042783637369613,台灣台北市信義區永吉國小,台北市,信義區
Feature,15115.0,永吉國小,Point,"121.5779587340879, 25.043604867402802",121.5779587340879,25.043604867402802,台灣台北市信義區松山路267號,台北市,信義區
Feature,2057.0,永吉國中,Point,"121.57364001227343, 25.047665984962826",121.57364001227344,25.047665984962826,台灣台北市信義區永吉國中,台北市,信義區
Feature,15106.0,永吉國中,Point,"121.57306482953585, 25.047526505060503",121.57306482953585,25.047526505060507,台灣台北市信義區永吉國中,台北市,信義區
Feature,4185.0,永安里,Point,"121.54560393681079, 25.078368037755876",121.54560393681079,25.07836803775588,台灣台北市中山區北安路458巷41弄4號,台北市,中山區
Feature,20262.0,永安街,Point,"121.56966, 24.98688",121.56966000000001,24.98688,台灣台北市文山區永安街22巷16號,台北市,文山區
Feature,142.0,永安街,Point,"121.56893, 24.98672",121.56893000000001,24.986720000000002,台灣台北市文山區永安街22巷23號,台北市,文山區
Feature,14625.0,永明派出所,Point,"121.51627492757996, 25.11726864253795",121.51627492757996,25.11726864253795,台灣台北市北投區石牌路二段91號,台北市,北投區
Feature,3977.0,永明派出所,Point,"121.51656, 25.11737",121.51656000000001,25.11737,台灣台北市北投區永明派出所,台北市,北投區
Feature,14630.0,永欣里,Point,"121.5236827863167, 25.121878843935015",121.5236827863167,25.12187884393501,台灣台北市北投區永欣里,台北市,北投區
Feature,14620.0,永欣里,Point,"121.52385006951225, 25.122190285316943",121.52385006951224,25.122190285316943,台灣台北市北投區永欣里,台北市,北投區
Feature,2058.0,永春公寓,Point,"121.57770058401134, 25.04011590470713",121.57770058401134,25.040115904707125,台灣台北市信義區松山路472號,台北市,信義區
Feature,15117.0,永春公寓,Point,"121.57803264057806, 25.04002084956833",121.57803264057806,25.04002084956833,台灣台北市信義區松山路447號,台北市,信義區
Feature,2059.0,永春里,Point,"121.57853119888526, 25.041053650750097",121.57853119888527,25.041053650750094,台灣台北市信義區忠孝東路五段508號2號,台北市,信義區
Feature,2060.0,永春里,Point,"121.57764185304725, 25.04133485458267",121.57764185304724,25.041334854582672,台灣台北市信義區松山路346號,台北市,信義區
Feature,3926.0,永春里,Point,"121.57841046857996, 25.041195290130428",121.57841046857996,25.041195290130428,台灣台北市信義區忠孝東路五段493號,台北市,信義區
Feature,15116.0,永春里,Point,"121.57795702771014, 25.042024473440634",121.57795702771013,25.042024473440637,台灣台北市信義區松山路321號,台北市,信義區
Feature,2071.0,永春高中,Point,"121.57983465027249, 25.033383680325706",121.57983465027249,25.033383680325702,台灣台北市信義區永春高中,台北市,信義區
Feature,1000779.0,永春高中,Point,"121.57971502570227, 25.033502595572852",121.57971502570228,25.033502595572852,台灣台北市信義區永春高中,台北市,信義區
Feature,4091.0,永春國小,Point,"121.57762766863996, 25.044905979757022",121.57762766863995,25.044905979757022,台灣台北市信義區松山路218號,台北市,信義區
Feature,15114.0,永春國小,Point,"121.57794361883055, 25.045076575724156",121.57794361883056,25.04507657572416,台灣台北市信義區松山路211號,台北市,信義區
Feature,50131.0,永春國小,Point,"121.57818693519997, 25.04534353925201",121.57818693519995,25.04534353925201,台灣台北市信義區永吉路438號,台北市,信義區
Feature,4090.0,永春國小,Point,"121.5768, 25.04557",121.5768,25.04557,台灣台北市信義區永吉路369號,台北市,信義區
Feature,5041.0,永倫里(社中),Point,"121.50214317790997, 25.09168347647702",121.50214317790994,25.091683476477016,台灣台北市士林區社中街440號,台北市,士林區
Feature,36106.0,永倫里(社中),Point,"121.50214749206997, 25.091502305589",121.50214749206995,25.091502305589,台灣台北市士林區社中街444號,台北市,士林區
Feature,679.0,永福(林語堂故居),Point,"121.54659673610999, 25.109027969119996",121.54659673611,25.109027969120003,台灣台北市士林區仰德大道二段131號,台北市,士林區
Feature,1000609.0,永福(林語堂故居),Point,"121.54679320237997, 25.109063666042974",121.54679320237994,25.109063666042967,台灣台北市士林區台2甲線118號,台北市,士林區
Feature,1000608.0,永嶺,Point,"121.54547059391999, 25.107319305480026",121.54547059392,25.107319305480022,台灣台北市士林區仰德大道二段94號,台北市,士林區
Feature,683.0,永嶺,Point,"121.54531973743998, 25.107245757143016",121.54531973743998,25.107245757143016,台灣台北市士林區仰德大道二段91號,台北市,士林區
Feature,1001128.0,汀州路,Point,"121.51124, 25.027154",121.51123999999999,25.027154,台灣台北市中正區汀州路一段189號,台北市,中正區
Feature,1913.0,汀州路,Point,"121.51101, 25.02673",121.51101000000001,25.02673,台灣台北市中正區汀州路一段284巷12號,台北市,中正區
Feature,2074.0,玄覺寺,Point,"121.56174, 25.02302",121.56173999999999,25.023020000000002,台灣台北市信義區玄覺寺,台北市,信義區
Feature,1001345.0,玄覺寺,Point,"121.56174, 25.023193",121.56173999999999,25.023193,台灣台北市信義區吳興街284巷24弄58號,台北市,信義區
Feature,1000299.0,玉成公園(中坡),Point,"121.585063, 25.04196",121.58506299999999,25.04196,台灣台北市信義區玉成公園(中坡),台北市,信義區
Feature,1000300.0,玉成公園(中坡),Point,"121.58514346626997, 25.04110747039501",121.58514346626995,25.041107470395012,台灣台北市信義區玉成公園(中坡),台北市,信義區
Feature,1000600.0,玉成公園(成福),Point,"121.58711, 25.042359",121.58711000000001,25.042359,台灣台北市南港區玉成公園(成福),台北市,南港區
Feature,2073.0,玉成公園(成福),Point,"121.58700463096996, 25.042751613348965",121.58700463096994,25.042751613348965,台灣台北市南港區成福路93號,台北市,南港區
Feature,15103.0,玉成里,Point,"121.5808886131679, 25.050955323536453",121.58088861316791,25.05095532353645,台灣台北市南港區玉成里,台北市,南港區
Feature,1515.0,玉成里,Point,"121.58111247617668, 25.050817924088733",121.58111247617668,25.05081792408873,台灣台北市南港區八德路四段802-1號,台北市,南港區
Feature,1001786.0,玉成里(東新街),Point,"121.58272, 25.0508",121.58272,25.0508,台灣台北市南港區玉成里(東新街),台北市,南港區
Feature,1011787.0,玉成里(東新街),Point,"121.583, 25.0509",121.583,25.0509,台灣台北市南港區玉成里(東新街),台北市,南港區
Feature,4000.0,玉成國小,Point,"121.59281060133466, 25.054468852098083",121.59281060133465,25.05446885209809,台灣台北市南港區南港路三段12號,台北市,南港區
